Restaurant_seq_ID,restaurant_ID,restaurant_name,country_code,Country,city,Address,locality,locality_verbose,restaurant_latitude,restaurant_longitude,cuisines,average_cost_for_two,currency,has_table_booking,has_online_delivery,is_delivering_now,switch_to_order_menu,price_range,aggregate_rating,rating_color,rating_text,rating_votes
1,4,China 1,17,Dummy,Dummy,"G 05, Morya Landmark 1, Off Link Road, Andheri Lokhandwala, Andheri West, Mumbai, AAAA, Dummy",AAAA,"AAAA, Dummy",73.990000,28.880000,"Chinese, Indian",400,,N,N,N,N,4,0.0,CBCBC8,Not rated,0
2,21,The Golconda Bowl - hilton,17,Dummy,Dummy,"48, 1st Floor, Above CCD, JVPD Scheme, Vile Parle West, Mumbai, AAAA, Dummy",AAAA,"AAAA, Dummy",0.000000,0.000000,"North Indian, Biryani",2500,,N,N,N,N,4,0.0,CBCBC8,Not rated,0
3,42,Salt Water Cafe,17,Dummy,Dummy,"82, Nagin Mahal, Veer Nariman Road, Opposite Gaylords, Churchgate, Mumbai, AAAA, Dummy",AAAA,"AAAA, Dummy",0.000000,0.000000,"North Indian, Chinese, Cafe",1500,,N,N,N,N,4,0.0,CBCBC8,Not rated,0
4,53,Amber,1,India,New Delhi,"N-19, Connaught Place, New Delhi",Connaught Place,"Connaught Place, New Delhi",28.630197,77.220891,"North Indian, Chinese, Mughlai",1800,Rs.,Y,Y,N,N,3,2.6,FFBA00,Average,152
5,55,Berco's,1,India,New Delhi,"G-2/43, Middle Circle, Connaught Place, New Delhi",Connaught Place,"Connaught Place, New Delhi",28.632452,77.217298,"Chinese, Thai",1100,Rs.,Y,Y,N,N,3,3.9,9ACD32,Good,2639
6,60,Colonel's Kababz,1,India,New Delhi,"29, Defence Colony Market, Defence Colony, New Delhi",Defence Colony,"Defence Colony, New Delhi",28.574036,77.230591,"North Indian, Mughlai",900,Rs.,Y,N,N,N,2,3.2,CDD614,Average,600
7,64,Diva - The Italian Restaurant,1,India,New Delhi,"M-8A, M Block Market, Greater Kailash (GK) 2, New Delhi",Greater Kailash (GK) 2,"Greater Kailash (GK) 2, New Delhi",28.534202,77.243186,Italian,2500,Rs.,Y,Y,N,N,4,3.8,9ACD32,Good,372
8,65,Drums of Heaven,1,India,New Delhi,"S-14, Green Park Extension, Green Park, New Delhi",Green Park,"Green Park, New Delhi",28.558018,77.205934,"Chinese, Seafood, Thai",1800,Rs.,Y,Y,N,N,3,3.5,9ACD32,Good,234
9,66,Embassy,1,India,New Delhi,"11-D, Connaught Place, New Delhi",Connaught Place,"Connaught Place, New Delhi",28.633679,77.221003,"North Indian, Continental, European",2000,Rs.,Y,Y,N,N,4,3.5,9ACD32,Good,706
10,67,Fa Yian,1,India,New Delhi,"A-25/5, Middle Circle, Connaught Place, New Delhi",Connaught Place,"Connaught Place, New Delhi",28.632811,77.217298,Chinese,1200,Rs.,Y,N,N,N,3,4.0,5BA829,Very Good,412
11,69,Chungwa,1,India,New Delhi,"M-34, M Block Market, Greater Kailash (GK) 2, New Delhi",Greater Kailash (GK) 2,"Greater Kailash (GK) 2, New Delhi",28.533914,77.243138,"Chinese, Thai, Seafood",1100,Rs.,Y,Y,N,N,3,3.3,CDD614,Average,489
12,73,Ichiban,1,India,New Delhi,"9, Pandara Road Market, New Delhi",Pandara Road Market,"Pandara Road Market, New Delhi",28.608071,77.229789,"Chinese, Thai, Japanese",1200,Rs.,Y,Y,N,N,3,3.9,9ACD32,Good,768
13,89,Naivedyam,1,India,New Delhi,"Shop 1, Hauz Khas Village, New Delhi",Hauz Khas Village,"Hauz Khas Village, New Delhi",28.555157,77.195275,South Indian,500,Rs.,N,Y,N,N,2,4.2,5BA829,Very Good,1627
14,93,Princess Garden,1,India,New Delhi,"E-32, South Extension 2, New Delhi",South Extension 2,"South Extension 2, New Delhi",28.568428,77.219229,"Chinese, North Indian",1200,Rs.,Y,N,N,N,3,2.7,FFBA00,Average,31
15,103,Veg Gulati,1,India,New Delhi,"8, Pandara Road Market, New Delhi",Pandara Road Market,"Pandara Road Market, New Delhi",28.608072,77.229806,North Indian,1200,Rs.,N,Y,N,N,3,3.8,9ACD32,Good,600
16,104,Woks - The Lalit New Delhi,1,India,New Delhi,"The Lalit, Barakhamba Avenue, Barakhamba Road, New Delhi","The Lalit New Delhi, Barakhamba Road","The Lalit New Delhi, Barakhamba Road, New Delhi",28.631407,77.227277,"Chinese, Seafood",4500,Rs.,Y,N,N,N,4,3.6,9ACD32,Good,62
17,112,Lotus Pond,1,India,New Delhi,"K-185, Surai Jullena, New Friends Colony, New Delhi",New Friends Colony,"New Friends Colony, New Delhi",28.561641,77.270476,"Chinese, Seafood, Asian",1800,Rs.,Y,Y,N,N,3,4.2,5BA829,Very Good,391
18,131,Chopsticks,1,India,New Delhi,"The Village Restaurant Complex, Next to Sirifort Auditorium, Khel Gaon Marg, New Delhi","The Village Restaurant Complex, Khel Gaon Marg","The Village Restaurant Complex, Khel Gaon Marg, New Delhi",28.552544,77.213390,"Chinese, Thai",1700,Rs.,Y,Y,N,N,3,3.6,9ACD32,Good,350
19,134,Moti Mahal Delux,1,India,New Delhi,"11, Defence Colony Market, Defence Colony, New Delhi",Defence Colony,"Defence Colony, New Delhi",28.573594,77.230187,"North Indian, Mughlai, Chinese",1000,Rs.,Y,Y,N,N,3,3.8,9ACD32,Good,130
20,143,Domino's Pizza,1,India,New Delhi,"M-42, Connaught Place, New Delhi",Connaught Place,"Connaught Place, New Delhi",28.633231,77.222896,"Pizza, Fast Food",700,Rs.,N,N,N,N,2,3.7,9ACD32,Good,336
21,147,Subway,1,India,New Delhi,"M-57, 1st Floor, M Block Market, Greater Kailash (GK) 1, New Delhi",Greater Kailash (GK) 1,"Greater Kailash (GK) 1, New Delhi",28.550522,77.234992,"American, Fast Food, Salad, Healthy Food",500,Rs.,N,Y,N,N,2,2.5,FFBA00,Average,115
22,148,Subway,1,India,New Delhi,"3, Satyam Cineplex, Nehru Place, New Delhi",Nehru Place,"Nehru Place, New Delhi",28.550175,77.251157,"American, Fast Food, Salad, Healthy Food",500,Rs.,N,N,N,N,2,3.6,9ACD32,Good,142
23,149,Subway,1,India,New Delhi,"54, The India Mall, Community Centre, New Friends Colony, New Delhi","The India Mall, New Friends Colony","The India Mall, New Friends Colony, New Delhi",28.561470,77.268517,"American, Fast Food, Salad, Healthy Food",500,Rs.,N,Y,N,N,2,1.9,DE1D0F,Poor,146
24,154,Subway,1,India,New Delhi,"8-C, Khan Market, New Delhi",Khan Market,"Khan Market, New Delhi",28.599860,77.226010,"American, Fast Food, Salad, Healthy Food",500,Rs.,N,Y,N,N,2,3.7,9ACD32,Good,188
25,157,Subway,1,India,Gurgaon,"SG-102, Ground Floor, DLF Galleria, DLF Phase 4, Gurgaon","DLF Galleria, DLF Phase 4","DLF Galleria, DLF Phase 4, Gurgaon",28.467614,77.081404,"American, Fast Food, Salad, Healthy Food",500,Rs.,N,N,N,N,2,2.5,FFBA00,Average,125
26,158,Subway,1,India,Gurgaon,"Food Court, 3rd Floor, DLF Mega Mall, DLF Phase 1, Gurgaon","DLF Mega Mall, DLF Phase 1","DLF Mega Mall, DLF Phase 1, Gurgaon",28.475689,77.093087,"American, Fast Food, Salad, Healthy Food",500,Rs.,N,N,N,N,2,3.1,CDD614,Average,46
27,159,Subway,1,India,Gurgaon,"Shop 4A, 3rd Floor, Food Court, MGF Metropolitan Mall, MG Road, Gurgaon","MGF Metropolitan Mall, MG Road","MGF Metropolitan Mall, MG Road, Gurgaon",28.480476,77.080212,"American, Fast Food, Salad, Healthy Food",500,Rs.,N,Y,N,N,2,3.3,CDD614,Average,81
28,166,Punjabi By Nature,1,India,Noida,"P-19, Sector 18, Noida",Sector 18,"Sector 18, Noida",28.569006,77.324842,"North Indian, Mughlai",2000,Rs.,Y,Y,N,N,4,3.7,9ACD32,Good,770
29,171,McDonald's,1,India,New Delhi,"Community Centre, Basant Lok Market, Vasant Vihar, New Delhi","Basant Lok Market, Vasant Vihar","Basant Lok Market, Vasant Vihar, New Delhi",28.557486,77.163656,"Fast Food, Burger",500,Rs.,N,Y,N,N,2,3.5,9ACD32,Good,202
30,175,McDonald's,1,India,New Delhi,"Shop 2, PVR Anupam Complex, Community Centre, Saket, New Delhi",PVR Anupam Complex,"PVR Anupam Complex, New Delhi",28.523354,77.207650,"Fast Food, Burger",500,Rs.,N,Y,N,N,2,3.6,9ACD32,Good,219
31,176,McDonald's,1,India,New Delhi,"Shop 23, Central Market, West Punjabi Bagh, Punjabi Bagh, New Delhi",Punjabi Bagh,"Punjabi Bagh, New Delhi",28.670339,77.133176,"Fast Food, Burger",500,Rs.,N,Y,N,N,2,3.7,9ACD32,Good,141
32,177,McDonald's,1,India,New Delhi,"P-14, Connaught Place, New Delhi",Connaught Place,"Connaught Place, New Delhi",28.632313,77.216411,"Fast Food, Burger",500,Rs.,N,N,N,N,2,3.8,9ACD32,Good,388
33,179,McDonald's,1,India,New Delhi,"BG-02, Ansal Plaza Mall, Khel Gaon Marg, New Delhi","Ansal Plaza Mall, Khel Gaon Marg","Ansal Plaza Mall, Khel Gaon Marg, New Delhi",28.562555,77.224359,"Fast Food, Burger",500,Rs.,N,Y,N,N,2,3.4,CDD614,Average,48
34,180,McDonald's,1,India,New Delhi,"F-14 & 15, Model Town 2, New Delhi",Model Town 2,"Model Town 2, New Delhi",28.705947,77.190122,"Fast Food, Burger",500,Rs.,N,Y,N,N,2,3.6,9ACD32,Good,122
35,181,McDonald's,1,India,New Delhi,"Near Grindlays Cinema, New Friends Colony, New Delhi",New Friends Colony,"New Friends Colony, New Delhi",28.561366,77.268936,"Fast Food, Burger",500,Rs.,N,Y,N,N,2,3.4,CDD614,Average,127
36,182,McDonald's,1,India,New Delhi,"42, Janpath, New Delhi",Janpath,"Janpath, New Delhi",28.626629,77.219206,"Fast Food, Burger",500,Rs.,N,Y,N,N,2,3.8,9ACD32,Good,158
37,185,McDonald's,1,India,New Delhi,"R 1, Janak Place, Janakpuri, New Delhi",Janakpuri,"Janakpuri, New Delhi",28.629937,77.081921,"Fast Food, Burger",500,Rs.,N,Y,N,N,2,3.6,9ACD32,Good,179
38,186,McDonald's,1,India,New Delhi,"2, Rachna Cinema Complex, Rajendra Place, New Delhi",Rajendra Place,"Rajendra Place, New Delhi",28.642674,77.177111,"Fast Food, Burger",500,Rs.,N,Y,N,N,2,3.4,CDD614,Average,91
39,188,McDonald's,1,India,New Delhi,"Vishal Cinema Complex, Rajouri Garden, New Delhi",Rajouri Garden,"Rajouri Garden, New Delhi",28.649981,77.120757,"Fast Food, Burger",500,Rs.,N,Y,N,N,2,3.7,9ACD32,Good,161
40,189,McDonald's,1,India,New Delhi,"ISBT, Railway Station, Kashmiri Gate, New Delhi",Kashmiri Gate,"Kashmiri Gate, New Delhi",28.667644,77.229334,"Fast Food, Burger",500,Rs.,N,N,N,N,2,3.3,CDD614,Average,132
41,191,McDonald's,1,India,New Delhi,"M2K, Manglam Palace, Rohini, New Delhi",Rohini,"Rohini, New Delhi",28.701002,77.116790,"Fast Food, Burger",500,Rs.,N,Y,N,N,2,3.4,CDD614,Average,108
42,192,McDonald's,1,India,New Delhi,"E-31/32, South Extension 2, New Delhi",South Extension 2,"South Extension 2, New Delhi",28.568446,77.219160,"Fast Food, Burger",500,Rs.,N,Y,N,N,2,3.6,9ACD32,Good,167
43,194,McDonald's,1,India,New Delhi,"M2K Multiplex, Community Centre, Road 44, Pitampura, New Delhi",Pitampura,"Pitampura, New Delhi",28.689324,77.133101,"Fast Food, Burger",500,Rs.,N,Y,N,N,2,3.3,CDD614,Average,58
44,195,McDonald's,1,India,New Delhi,"9-B & C, Cross River Mall, Karkardooma, New Delhi","Cross River Mall, Karkardooma","Cross River Mall, Karkardooma, New Delhi",28.657631,77.302280,"Fast Food, Burger",500,Rs.,N,Y,N,N,2,3.4,CDD614,Average,77
45,196,McDonald's,1,India,New Delhi,"Shop 1, Plot 45, Satyam Cinema Complex, Nehru Place, New Delhi",Nehru Place,"Nehru Place, New Delhi",28.550175,77.251157,"Fast Food, Burger",500,Rs.,N,Y,N,N,2,3.7,9ACD32,Good,177
46,197,Domino's Pizza,1,India,New Delhi,"15/16/16-A, Plot 9-D, Aditya Mega Mall, Karkardooma, New Delhi","Aditya Mega Mall, Karkardooma","Aditya Mega Mall, Karkardooma, New Delhi",28.656453,77.301634,"Pizza, Fast Food",700,Rs.,N,N,N,N,2,2.8,FFBA00,Average,83
47,198,Domino's Pizza,1,India,New Delhi,"2-4 & 25-27, Pocket B, Ground Floor, DDA Market, Ashok Vihar Phase 3, New Delhi",Ashok Vihar Phase 3,"Ashok Vihar Phase 3, New Delhi",28.692417,77.177817,"Pizza, Fast Food",700,Rs.,N,N,N,N,2,3.2,CDD614,Average,101
48,199,Domino's Pizza,1,India,New Delhi,"A-1, DDA Shopping Complex, Near Moolchand Flyover, Defence Colony, New Delhi",Defence Colony,"Defence Colony, New Delhi",28.566159,77.233061,"Pizza, Fast Food",700,Rs.,N,N,N,N,2,2.5,FFBA00,Average,78
49,201,Domino's Pizza,1,India,New Delhi,"18/27, East Patel Nagar Market, East Patel Nagar, New Delhi",East Patel Nagar,"East Patel Nagar, New Delhi",28.645340,77.172620,"Pizza, Fast Food",700,Rs.,N,N,N,N,2,3.5,9ACD32,Good,119
50,202,Domino's Pizza,1,India,New Delhi,"M-83, Main Market, Greater Kailash (GK) 2, New Delhi",Greater Kailash (GK) 2,"Greater Kailash (GK) 2, New Delhi",28.532187,77.242837,"Pizza, Fast Food",700,Rs.,N,N,N,N,2,3.2,CDD614,Average,138
51,203,Domino's Pizza,1,India,New Delhi,"S-27, Ground Floor, Main Market, Green Park, New Delhi",Green Park,"Green Park, New Delhi",28.556600,77.202341,"Pizza, Fast Food",700,Rs.,N,N,N,N,2,2.5,FFBA00,Average,238
52,209,Domino's Pizza,1,India,New Delhi,"C-7, Malviya Nagar, New Delhi",Malviya Nagar,"Malviya Nagar, New Delhi",28.536324,77.211528,"Pizza, Fast Food",700,Rs.,N,N,N,N,2,2.3,FF7800,Poor,185
53,212,Domino's Pizza,1,India,New Delhi,"32-33, Grandlays Cinema Complex, New Friends Colony, New Delhi",New Friends Colony,"New Friends Colony, New Delhi",28.561357,77.268846,"Pizza, Fast Food",700,Rs.,N,N,N,N,2,2.8,FFBA00,Average,95
54,213,Domino's Pizza,1,India,New Delhi,"1 & 2, Block A-5 B, DDA Market, Paschim Vihar, New Delhi",Paschim Vihar,"Paschim Vihar, New Delhi",28.676861,77.104370,"Pizza, Fast Food",700,Rs.,N,N,N,N,2,3.2,CDD614,Average,111
55,214,Domino's Pizza,1,India,New Delhi,"1 & 21 KD, Ground Floor, DDA Market, Pitampura, New Delhi",Pitampura,"Pitampura, New Delhi",28.699259,77.139456,"Pizza, Fast Food",700,Rs.,N,N,N,N,2,3.2,CDD614,Average,73
56,215,Domino's Pizza,1,India,New Delhi,"30, Aditya Arcade, Preet Vihar, New Delhi",Preet Vihar,"Preet Vihar, New Delhi",28.639333,77.294950,"Pizza, Fast Food",700,Rs.,N,N,N,N,2,2.8,FFBA00,Average,102
57,216,Domino's Pizza,1,India,New Delhi,"27-28, Central Market West, Punjabi Bagh, New Delhi",Punjabi Bagh,"Punjabi Bagh, New Delhi",28.671141,77.134360,"Pizza, Fast Food",700,Rs.,N,N,N,N,2,3.2,CDD614,Average,112
58,217,Domino's Pizza,1,India,New Delhi,"J-2/20, Ground Floor, BK Dutta Market, Rajouri Garden, New Delhi",Rajouri Garden,"Rajouri Garden, New Delhi",28.647111,77.118649,"Pizza, Fast Food",700,Rs.,N,N,N,N,2,3.5,9ACD32,Good,194
59,218,Domino's Pizza,1,India,New Delhi,"10/11, Garg Mall, Community Center, Rohini, New Delhi",Rohini,"Rohini, New Delhi",28.734810,77.114088,"Pizza, Fast Food",700,Rs.,N,N,N,N,2,3.5,9ACD32,Good,123
60,219,Domino's Pizza,1,India,New Delhi,"11, PVR Anupam Complex, Community Centre",PVR Anupam Complex,"PVR Anupam Complex, New Delhi",28.523269,77.207552,"Pizza, Fast Food",700,Rs.,N,N,N,N,2,2.5,FFBA00,Average,253
61,220,Domino's Pizza,1,India,New Delhi,"6-7, Commercial Shopping Complex, Shanti Niketan Marg, New Delhi",Shanti Niketan Marg,"Shanti Niketan Marg, New Delhi",28.577132,77.168408,"Pizza, Fast Food",700,Rs.,N,N,N,N,2,2.8,FFBA00,Average,85
62,225,Domino's Pizza,1,India,Gurgaon,"UGF/RTC 9, Building 8, Tower C, DLF- 2, DLF Cyber City, Gurgaon",DLF Cyber City,"DLF Cyber City, Gurgaon",28.494525,77.089048,"Pizza, Fast Food",700,Rs.,N,N,N,N,2,2.4,FF7800,Poor,125
63,226,Domino's Pizza,1,India,Gurgaon,"Food Court, 3rd Floor, DLF Mega Mall, DLF Phase 1, Gurgaon","DLF Mega Mall, DLF Phase 1","DLF Mega Mall, DLF Phase 1, Gurgaon",28.475776,77.093083,"Pizza, Fast Food",700,Rs.,N,N,N,N,2,2.8,FFBA00,Average,30
64,227,Domino's Pizza,1,India,Gurgaon,"G-4/5, Central Plaza Mall, Golf Course Road, Gurgaon","Central Plaza Mall, Golf Course Road","Central Plaza Mall, Golf Course Road, Gurgaon",28.442867,77.101007,"Pizza, Fast Food",700,Rs.,N,N,N,N,2,3.4,CDD614,Average,104
65,230,Domino's Pizza,1,India,Gurgaon,"4-C, Ground Floor, Omaxe Gurgaon Mall, Sohna Road, Gurgaon",Omaxe Gurgaon Mall,"Omaxe Gurgaon Mall, Gurgaon",28.411395,77.043179,"Pizza, Fast Food",700,Rs.,N,N,N,N,2,2.4,FF7800,Poor,112
66,234,Nirula's,1,India,New Delhi,"B-10, DDA Market, Vasant Kunj, New Delhi",Vasant Kunj,"Vasant Kunj, New Delhi",28.531431,77.153802,"Fast Food, North Indian, Desserts, Ice Cream",1100,Rs.,N,Y,N,N,3,3.0,CDD614,Average,145
67,249,Pizza Hut,1,India,New Delhi,"M-20, Outer Circle, Connaught Place, New Delhi",Connaught Place,"Connaught Place, New Delhi",28.632218,77.222822,"Italian, Pizza, Fast Food",1000,Rs.,N,Y,N,N,3,3.5,9ACD32,Good,541
68,250,Pizza Hut,1,India,New Delhi,"FA 7 & 8, Metro Walk Mall, Sector 11, Rohini, New Delhi","Metro Walk Mall, Rohini","Metro Walk Mall, Rohini, New Delhi",28.724163,77.113684,"Italian, Pizza, Fast Food",1000,Rs.,N,N,N,N,3,2.8,FFBA00,Average,83
69,252,Pizza Hut,1,India,New Delhi,"V3S Mall, Laxmi Nagar, New Delhi","V3S Mall, Laxmi Nagar","V3S Mall, Laxmi Nagar, New Delhi",28.637001,77.286103,"Italian, Pizza, Fast Food",1000,Rs.,N,Y,N,N,3,2.4,FF7800,Poor,224
70,254,Pizza Hut,1,India,Gurgaon,"Centerpoint, A Block, Phase 1, Sushant Lok, Gurgaon",Sushant Lok,"Sushant Lok, Gurgaon",28.468406,77.074619,"Italian, Pizza, Fast Food",1000,Rs.,N,Y,N,N,3,2.8,FFBA00,Average,80
71,256,Pizza Hut,1,India,New Delhi,"12, PVR Anupam Complex, Community Centre",Saket,"Saket, New Delhi",28.523360,77.207607,"Italian, Pizza, Fast Food",1000,Rs.,N,Y,N,N,3,3.1,CDD614,Average,237
72,257,Pizza Hut,1,India,New Delhi,"G-5, Aggarwal Millenium Tower, Netaji Subhash Place, New Delhi",Netaji Subhash Place,"Netaji Subhash Place, New Delhi",28.694138,77.149640,"Italian, Pizza, Fast Food",1000,Rs.,N,Y,N,N,3,3.3,CDD614,Average,211
73,259,Pizza Hut,1,India,New Delhi,"S-32, Main Road Market, Green Park, New Delhi",Green Park,"Green Park, New Delhi",28.556346,77.202026,"Italian, Pizza, Fast Food",1000,Rs.,N,Y,N,N,3,3.3,CDD614,Average,276
74,261,Pizza Hut,1,India,New Delhi,"58, Janpath, New Delhi",Janpath,"Janpath, New Delhi",28.627511,77.219513,"Italian, Pizza, Fast Food",1000,Rs.,N,Y,N,N,3,3.4,CDD614,Average,116
75,262,Pizza Hut,1,India,New Delhi,"41, Basant Lok Market, Vasant Vihar, New Delhi","Basant Lok Market, Vasant Vihar","Basant Lok Market, Vasant Vihar, New Delhi",28.557509,77.164080,"Italian, Pizza, Fast Food",1000,Rs.,N,Y,N,N,3,3.1,CDD614,Average,161
76,267,Pizza Hut Delivery,1,India,New Delhi,"19-20, Grandlay Cinema Building, New Friends Colony, New Delhi",New Friends Colony,"New Friends Colony, New Delhi",28.561357,77.268846,"Italian, Pizza, Fast Food",800,Rs.,N,Y,N,N,2,3.9,9ACD32,Good,189
77,270,Isabella,1,India,Gurgaon,"KG-5 C, Ground Floor, Tower C, Cyber Greens, DLF Cyber City, Gurgaon","Cyber Greens, DLF Cyber City","Cyber Greens, DLF Cyber City, Gurgaon",28.493723,77.092824,"North Indian, Mughlai, Chinese",700,Rs.,N,Y,N,N,2,2.8,FFBA00,Average,191
78,278,Nooba,1,India,Gurgaon,"Premises 2G, Building 10, Tower A, DLF Cyber City, Gurgaon",DLF Cyber City,"DLF Cyber City, Gurgaon",28.494248,77.087564,Chinese,1500,Rs.,N,N,N,N,3,3.8,9ACD32,Good,333
79,285,Not Just Paranthas,1,India,New Delhi,"M-84, M Block Market, Greater Kailash (GK) 2, New Delhi",Greater Kailash (GK) 2,"Greater Kailash (GK) 2, New Delhi",28.532309,77.242662,North Indian,1100,Rs.,Y,Y,N,N,3,3.7,9ACD32,Good,487
80,305,Sagar Ratna,1,India,New Delhi,"18, Defence Colony Market, Defence Colony, New Delhi",Defence Colony,"Defence Colony, New Delhi",28.573383,77.230322,"South Indian, North Indian, Chinese",600,Rs.,N,Y,N,N,2,4.0,5BA829,Very Good,782
81,306,Sagar Ratna,1,India,New Delhi,"24, Defence Colony Market, Defence Colony, New Delhi",Defence Colony,"Defence Colony, New Delhi",28.573123,77.230412,"North Indian, Chinese",600,Rs.,N,Y,N,N,2,3.7,9ACD32,Good,308
82,308,Sagar Ratna,1,India,New Delhi,"Central Market, Masudpur, Vasant Kunj, New Delhi",Vasant Kunj,"Vasant Kunj, New Delhi",28.525131,77.155416,"South Indian, North Indian",600,Rs.,N,Y,N,N,2,2.8,FFBA00,Average,133
83,309,Sagar Ratna,1,India,New Delhi,"B-2/1, Ashok Vihar Phase 2, New Delhi",Ashok Vihar Phase 2,"Ashok Vihar Phase 2, New Delhi",28.693362,77.177948,"South Indian, North Indian, Chinese",600,Rs.,N,Y,N,N,2,2.7,FFBA00,Average,278
84,320,Sagar Ratna,1,India,New Delhi,"K-15, Connaught Place, New Delhi",Connaught Place,"Connaught Place, New Delhi",28.635683,77.220409,"South Indian, North Indian, Chinese",600,Rs.,N,Y,N,N,2,3.4,CDD614,Average,499
85,329,Viva Hyderabad,1,India,Gurgaon,"5, New Gurgaon Plaza, Old Delhi Road, Sector 14, Gurgaon",Sector 14,"Sector 14, Gurgaon",28.476412,77.044596,"Biryani, North Indian",600,Rs.,N,Y,N,N,2,2.5,FFBA00,Average,70
86,338,Sage,1,India,Gurgaon,"Food Court, MGF Metropolitan Mall, MG Road, Gurgaon","MGF Metropolitan Mall, MG Road","MGF Metropolitan Mall, MG Road, Gurgaon",28.480520,77.080123,"Pizza, Italian",900,Rs.,N,N,N,N,2,3.5,9ACD32,Good,205
87,345,Colonel's Kababz,1,India,New Delhi,"K 11, Som Vihar Apartments, R K Puram, New Delhi",R K Puram,"R K Puram, New Delhi",28.572432,77.173859,"North Indian, Mughlai",900,Rs.,Y,Y,N,N,2,3.2,CDD614,Average,67
88,349,"34, Chowringhee Lane",1,India,New Delhi,"G-37, Ground Floor, Westend Mall, Janakpuri, New Delhi","West End Mall, Janak Puri","West End Mall, Janak Puri, New Delhi",28.629900,77.080281,Fast Food,350,Rs.,N,N,N,N,1,3.4,CDD614,Average,86
89,351,"34, Chowringhee Lane",1,India,New Delhi,"93, Opposite Venkateswara College, Satyaniketan, New Delhi",Satyaniketan,"Satyaniketan, New Delhi",28.588405,77.168468,Fast Food,350,Rs.,N,N,N,N,1,3.5,9ACD32,Good,345
90,355,New Kadimi,1,India,New Delhi,"1 & 2, C-5A, Kadimi Market, Janakpuri, New Delhi",Janakpuri,"Janakpuri, New Delhi",28.615847,77.094420,"North Indian, South Indian, Chinese, Fast Food",600,Rs.,N,Y,N,N,2,2.5,FFBA00,Average,162
91,357,Bemisaal,1,India,New Delhi,"G-6, Janak Place, District Centre, Janakpuri, New Delhi","District Centre, Janakpuri","District Centre, Janakpuri, New Delhi",28.630110,77.080052,"North Indian, Chinese",800,Rs.,Y,Y,N,N,2,3.4,CDD614,Average,122
92,358,Halki Aanch,1,India,Gurgaon,"D-141, Shopping Mall, Arjun Marg, DLF Phase 1, Gurgaon","Shopping Mall, DLF Phase 1","Shopping Mall, DLF Phase 1, Gurgaon",28.465631,77.099722,"North Indian, Chinese",700,Rs.,N,Y,N,N,2,3.3,CDD614,Average,64
93,384,Domino's Pizza,1,India,Noida,"C-2/22, Sector 18, Noida",Sector 18,"Sector 18, Noida",28.570282,77.324888,"Pizza, Fast Food",700,Rs.,N,N,N,N,2,3.6,9ACD32,Good,547
94,385,Domino's Pizza,1,India,Noida,"B-1/55, Central Market, Sector 50, Noida",Sector 50,"Sector 50, Noida",28.569979,77.362104,"Pizza, Fast Food",700,Rs.,N,N,N,N,2,2.4,FF7800,Poor,161
95,386,Domino's Pizza,1,India,Noida,"Lower Ground, Supertech Shopprix Mall, Sector 61, Noida","Supertech Shopprix Mall, Sector 61","Supertech Shopprix Mall, Sector 61, Noida",28.597114,77.364908,"Pizza, Fast Food",700,Rs.,N,N,N,N,2,2.4,FF7800,Poor,98
96,387,Nirula's,1,India,Noida,"C-135, Near Sector 15 Metro Station, Sector 2, Noida",Sector 2,"Sector 2, Noida",28.582249,77.313513,"Fast Food, North Indian, Chinese, Desserts, Ice Cream",1100,Rs.,Y,Y,N,N,3,2.5,FFBA00,Average,221
97,390,Pizza Hut,1,India,Noida,"Ground Floor, Spice World Mall, Sector 25-A, Sector 25, Noida","Spice World Mall, Sector 25","Spice World Mall, Sector 25, Noida",28.586410,77.341313,"Italian, Pizza, Fast Food",1000,Rs.,N,N,N,N,3,3.4,CDD614,Average,144
98,393,Pizza Hut,1,India,Noida,"Ground Floor, Supertech Shopprix Mall, Sector 61, Noida","Supertech Shopprix Mall, Sector 61","Supertech Shopprix Mall, Sector 61, Noida",28.597342,77.364841,"Italian, Pizza, Fast Food",1000,Rs.,N,Y,N,N,3,3.3,CDD614,Average,113
99,394,Pizza Hut,1,India,Noida,"The Great India Place Mall, Sector 38 A, Noida, Sector 38, Noida","The Great India Place, Sector 38","The Great India Place, Sector 38, Noida",28.567249,77.325513,"Italian, Pizza, Fast Food",1000,Rs.,N,N,N,N,3,3.7,9ACD32,Good,189
100,395,Pizza Hut Delivery,1,India,Noida,"5-10 & 12, Parsvanath Plaza, G Block, Sector 27, Noida",Sector 27,"Sector 27, Noida",28.577548,77.328325,"Italian, Pizza, Fast Food",800,Rs.,N,Y,N,N,2,2.3,FF7800,Poor,62
101,396,McDonald's,1,India,Noida,"P-16, Atta Market, Sector 18, Noida",Sector 18,"Sector 18, Noida",28.569209,77.324328,Fast Food,500,Rs.,N,Y,N,N,2,3.9,9ACD32,Good,403
102,399,McDonald's,1,India,Noida,"A-79A, Savoy Suite, Sector 16, Noida",Sector 16,"Sector 16, Noida",28.580139,77.315705,"Fast Food, Burger",500,Rs.,N,Y,N,N,2,3.7,9ACD32,Good,135
103,404,Yo! China,1,India,New Delhi,"G-9, V3S Mall, Laxmi Nagar, New Delhi","V3S Mall, Laxmi Nagar","V3S Mall, Laxmi Nagar, New Delhi",28.636704,77.286034,Chinese,900,Rs.,Y,Y,N,N,2,2.0,FF7800,Poor,191
104,409,Yo! China,1,India,Noida,"3rd Floor, The Great India Place Mall, Sector 38-A, Near, Sector 38, Noida","The Great India Place, Sector 38","The Great India Place, Sector 38, Noida",28.567822,77.326250,Chinese,1300,Rs.,N,Y,N,N,3,2.6,FFBA00,Average,334
105,410,Naivedyam,1,India,New Delhi,"25/35, East Patel Nagar, New Delhi",East Patel Nagar,"East Patel Nagar, New Delhi",28.643841,77.176020,South Indian,500,Rs.,N,Y,N,N,2,3.6,9ACD32,Good,359
106,412,Naivedyam,1,India,New Delhi,"F-12, Main Road, Kalkaji, New Delhi",Kalkaji,"Kalkaji, New Delhi",28.541957,77.254273,South Indian,500,Rs.,N,Y,N,N,2,3.8,9ACD32,Good,495
107,420,Rajasthali,1,India,Gurgaon,"3rd Floor, MGF Metropolitan Mall, MG Road, Gurgaon","MGF Metropolitan Mall, MG Road","MGF Metropolitan Mall, MG Road, Gurgaon",28.480835,77.080212,"Gujarati, Rajasthani",750,Rs.,Y,N,N,N,2,2.9,FFBA00,Average,501
108,422,Chor Bizarre - Hotel Broadway,1,India,New Delhi,"Hotel Broadway, 4/15/A, Daryaganj, New Delhi","Hotel Broadway, Daryaganj","Hotel Broadway, Daryaganj, New Delhi",28.641044,77.237866,"North Indian, Kashmiri, Chinese, Thai, Korean",2000,Rs.,Y,N,N,N,4,3.9,9ACD32,Good,295
109,427,Sagar Ratna,1,India,Noida,"49-50, Ansal Fortune Arcade, Sector 18, Noida",Sector 18,"Sector 18, Noida",28.572128,77.322214,"South Indian, North Indian, Chinese",600,Rs.,N,Y,N,N,2,3.2,CDD614,Average,277
110,428,Sagar Ratna,1,India,Noida,"C-134/B, Supertech Shopprix Mall, Sector 61, Noida","Supertech Shopprix Mall, Sector 61","Supertech Shopprix Mall, Sector 61, Noida",28.597103,77.364833,"South Indian, North Indian, Chinese",600,Rs.,N,Y,N,N,2,2.3,FF7800,Poor,155
111,429,Mezbaan's,1,India,Gurgaon,"SCO 20, Housing Board Shopping Complex, Saraswati Vihar, Near Union Bank, MG Road, Gurgaon",MG Road,"MG Road, Gurgaon",28.475778,77.082393,"North Indian, Mughlai, Chinese",600,Rs.,N,N,N,N,2,2.7,FFBA00,Average,61
112,437,Saleem's Restaurant,1,India,New Delhi,"39, Flyover Market, Defence Colony, New Delhi",Defence Colony,"Defence Colony, New Delhi",28.577770,77.238270,"North Indian, Mughlai, Chinese",600,Rs.,N,Y,N,N,2,3.2,CDD614,Average,53
113,439,Saleem's Takeaway,1,India,Noida,"D 68/K1, Jaipuria Plaza, Sector 26, Noida","Jaipuria Plaza, Sector 26, Noida","Jaipuria Plaza, Sector 26, Noida, Noida",28.575916,77.334786,"North Indian, Mughlai, Chinese",600,Rs.,N,N,N,N,2,2.6,FFBA00,Average,44
114,443,The Tandoor,1,India,New Delhi,"G-15, D-1, Aashirwaad Complex, Green Park, New Delhi",Green Park,"Green Park, New Delhi",28.557004,77.205171,"North Indian, Mughlai",600,Rs.,N,Y,N,N,2,3.4,CDD614,Average,121
115,447,Rasoi E Punjab,1,India,Noida,"304, Food Court, Spice World Mall, Sector 25 A, Near Sector 25, Noida","Spice World Mall, Sector 25","Spice World Mall, Sector 25, Noida",28.585474,77.340449,North Indian,500,Rs.,N,N,N,N,2,2.6,FFBA00,Average,32
116,450,Swagath,1,India,Noida,"J-57, Near Centrestage Mall, Sector 18, Noida",Sector 18,"Sector 18, Noida",28.568424,77.323735,"North Indian, Chinese, South Indian, Seafood, Chettinad",1500,Rs.,Y,N,N,N,3,3.6,9ACD32,Good,415
117,451,Swagath,1,India,New Delhi,"14, Defence Colony Market, Defence Colony, New Delhi",Defence Colony,"Defence Colony, New Delhi",28.573545,77.230142,"North Indian, Chinese, South Indian, Seafood, Chettinad",1500,Rs.,Y,N,N,N,3,3.9,9ACD32,Good,749
118,452,Swagath,1,India,New Delhi,"C-8, Main Market, Malviya Nagar, New Delhi",Malviya Nagar,"Malviya Nagar, New Delhi",28.536406,77.211617,"North Indian, Chinese, Seafood, Chettinad",1500,Rs.,Y,N,N,N,3,3.5,9ACD32,Good,168
119,457,Kamboj's,1,India,Noida,"AVCC Club, Sector 37, Noida",Sector 37,"Sector 37, Noida",28.566141,77.340278,"North Indian, Mughlai, Chinese",800,Rs.,Y,Y,N,N,2,2.8,FFBA00,Average,239
120,461,Karim's,1,India,Noida,"G-40, Mughal Palace, Sector 18, Noida",Sector 18,"Sector 18, Noida",28.569265,77.323658,"Mughlai, North Indian",1200,Rs.,Y,N,N,N,3,3.3,CDD614,Average,446
121,462,Karim's,1,India,New Delhi,"168/2, Jha House Basti, Nizamuddin West, Nizamuddin, New Delhi",Nizamuddin,"Nizamuddin, New Delhi",28.591268,77.243651,"Mughlai, North Indian",800,Rs.,Y,Y,N,N,2,3.7,9ACD32,Good,360
122,463,Karim's,1,India,New Delhi,"16, Gali Kababian, Jama Masjid, New Delhi",Jama Masjid,"Jama Masjid, New Delhi",28.649393,77.233630,"Mughlai, North Indian",800,Rs.,N,N,N,N,2,4.0,5BA829,Very Good,4689
123,468,Karim's,1,India,New Delhi,"1-2/5, Sagar Complex, New Rajdhani Enclave, Vikas Marg, Preet Vihar, New Delhi",Preet Vihar,"Preet Vihar, New Delhi",28.642720,77.296464,"Mughlai, North Indian",700,Rs.,N,Y,N,N,2,2.5,FFBA00,Average,84
124,472,Evergreen Sweet House,1,India,New Delhi,"S-29 & 30, Main Market, Green Park, New Delhi",Green Park,"Green Park, New Delhi",28.556210,77.202643,"South Indian, North Indian, Chinese, Fast Food, Street Food, Mithai",450,Rs.,N,N,N,N,1,3.5,9ACD32,Good,1198
125,473,Madras Cafe,1,India,New Delhi,"S-26, Main Market, Green Park, New Delhi",Green Park,"Green Park, New Delhi",28.556600,77.202341,South Indian,300,Rs.,N,N,N,N,1,2.5,FFBA00,Average,191
126,474,Moti Mahal Delux Tandoori Trail,1,India,New Delhi,"1st Floor, V3S Mall, Laxmi Nagar, New Delhi","V3S Mall, Laxmi Nagar","V3S Mall, Laxmi Nagar, New Delhi",28.637036,77.286111,"North Indian, Mughlai",1000,Rs.,Y,Y,N,N,3,2.2,FF7800,Poor,79
127,476,Moti Mahal Delux,1,India,New Delhi,"37, Central Market, Punjabi Bagh West, Punjabi Bagh, New Delhi",Punjabi Bagh,"Punjabi Bagh, New Delhi",28.671035,77.134156,"North Indian, Mughlai, Chinese",1200,Rs.,Y,Y,N,N,3,2.5,FFBA00,Average,70
128,481,Moti Mahal,1,India,New Delhi,"3703, Netaji Subhash Marg, Daryaganj, New Delhi",Daryaganj,"Daryaganj, New Delhi",28.646194,77.240201,"North Indian, Chinese",1100,Rs.,Y,N,N,N,3,3.6,9ACD32,Good,711
129,482,Moti Mahal Delux,1,India,New Delhi,"F-15, District Center, Janak Place, Janakpuri, New Delhi",Janakpuri,"Janakpuri, New Delhi",28.630026,77.082047,"North Indian, Mughlai, Chinese",1000,Rs.,Y,Y,N,N,3,2.6,FFBA00,Average,105
130,483,Moti Mahal Delux- Legendary Culinary,1,India,New Delhi,"E-31/32, South Extension 2, New Delhi",South Extension 2,"South Extension 2, New Delhi",28.568234,77.219543,"North Indian, Mughlai, Chinese",1500,Rs.,Y,Y,N,N,3,3.6,9ACD32,Good,177
131,486,Crazy Noodles,1,India,Noida,"3rd Floor, The Great India Place, Sector 38-A, Near Sector 38, Noida","The Great India Place, Sector 38","The Great India Place, Sector 38, Noida",28.567888,77.326475,"Chinese, Thai",1100,Rs.,Y,Y,N,N,3,3.6,9ACD32,Good,507
132,490,Desi Vibes,1,India,Noida,"G-50, 1st Floor, Sector 18, Noida",Sector 18,"Sector 18, Noida",28.569492,77.324256,"North Indian, Mughlai",1400,Rs.,N,Y,N,N,3,3.8,9ACD32,Good,2019
133,491,Bikanervala,1,India,New Delhi,"A-80, Central Market, Near Axis Bank, Lajpat Nagar 2, New Delhi",Lajpat Nagar 2,"Lajpat Nagar 2, New Delhi",28.571075,77.239033,"North Indian, South Indian, Fast Food, Street Food, Chinese, Beverages, Desserts, Mithai",550,Rs.,N,Y,N,N,2,3.7,9ACD32,Good,269
134,492,Bikanervala,1,India,New Delhi,"1, ITL Twin Tower, Netaji Subhash Place, New Delhi",Netaji Subhash Place,"Netaji Subhash Place, New Delhi",28.691296,77.152022,"North Indian, South Indian, Fast Food, Street Food, Chinese, Beverages, Desserts, Mithai",550,Rs.,N,Y,N,N,2,3.4,CDD614,Average,89
135,495,Bikanervala,1,India,New Delhi,"28, NWA Club Road, Punjabi Bagh, New Delhi",Punjabi Bagh,"Punjabi Bagh, New Delhi",28.666604,77.121560,"North Indian, South Indian, Fast Food, Street Food, Chinese, Beverages, Mithai",550,Rs.,N,Y,N,N,2,3.2,CDD614,Average,129
136,496,Bikanervala,1,India,Gurgaon,"Plot 3-5, Near Leisure Valley Park, Sector 29, Gurgaon",Sector 29,"Sector 29, Gurgaon",28.468681,77.063597,"Mithai, North Indian, South Indian, Fast Food, Street Food, Chinese",550,Rs.,N,Y,N,N,2,3.8,9ACD32,Good,966
137,497,Bikanervala,1,India,New Delhi,"A-2/43, 1st Floor, Rajouri Garden, New Delhi",Rajouri Garden,"Rajouri Garden, New Delhi",28.648536,77.122740,"North Indian, South Indian, Fast Food, Street Food, Chinese, Beverages, Desserts, Mithai",550,Rs.,N,N,N,N,2,3.8,9ACD32,Good,334
138,501,Barista,1,India,Noida,"EXL Tower, 5, A-94/4, 5, Sector 58, Noida",Sector 58,"Sector 58, Noida",28.604590,77.357619,Cafe,650,Rs.,N,N,N,N,2,3.0,CDD614,Average,7
139,506,Barista,1,India,New Delhi,"F-62, 1st Floor, Select Citywalk Mall, Saket, New Delhi","Select Citywalk Mall, Saket","Select Citywalk Mall, Saket, New Delhi",28.528437,77.219232,Cafe,650,Rs.,N,N,N,N,2,3.6,9ACD32,Good,99
140,510,Barista,1,India,Noida,"A 48, EXL Tower 3, Sector 58, Noida",Sector 58,"Sector 58, Noida",28.604866,77.358741,Cafe,650,Rs.,N,N,N,N,2,2.9,FFBA00,Average,5
141,511,Barista,1,India,New Delhi,"18/36, Ground Floor, Main Market, East Patel Nagar, New Delhi",East Patel Nagar,"East Patel Nagar, New Delhi",28.645559,77.173108,Cafe,650,Rs.,N,N,N,N,2,3.2,CDD614,Average,44
142,514,Barista,1,India,Gurgaon,"Ground Floor, MGF Metropolitan Mall, MG Road, Gurgaon","MGF Metropolitan Mall, MG Road","MGF Metropolitan Mall, MG Road, Gurgaon",28.480999,77.080071,Cafe,650,Rs.,N,Y,N,N,2,3.4,CDD614,Average,39
143,523,Barista,1,India,Noida,"Supertech Shopprix Mall, Sector 61, Noida","Supertech Shopprix Mall, Sector 61","Supertech Shopprix Mall, Sector 61, Noida",28.597103,77.364833,Cafe,650,Rs.,N,N,N,N,2,2.5,FFBA00,Average,23
144,525,Barista,1,India,New Delhi,"15, Gyandeep, Main Market, Defence Colony, New Delhi",Defence Colony,"Defence Colony, New Delhi",28.573545,77.230142,Cafe,650,Rs.,N,Y,N,N,2,3.3,CDD614,Average,73
145,528,Barista,1,India,New Delhi,"C-17, SDA Market, SDA, New Delhi",SDA,"SDA, New Delhi",28.546508,77.196622,Cafe,650,Rs.,N,Y,N,N,2,3.6,9ACD32,Good,104
146,533,Barista,1,India,New Delhi,"G-2/A, Janak Place District Centre, Janakpuri, New Delhi",Janakpuri,"Janakpuri, New Delhi",28.630874,77.081247,Cafe,650,Rs.,N,Y,N,N,2,3.3,CDD614,Average,74
147,535,Barista,1,India,New Delhi,"55, Community Center, Vasant Vihar, New Delhi",Vasant Vihar,"Vasant Vihar, New Delhi",28.557053,77.164080,Cafe,650,Rs.,N,Y,N,N,2,3.3,CDD614,Average,47
148,550,Haldiram's,1,India,Noida,"108-109, Ground Floor, Spice World Mall, Sector 25, Noida","Spice World Mall, Sector 25","Spice World Mall, Sector 25, Noida",28.586141,77.341214,"North Indian, South Indian, Chinese, Street Food, Fast Food, Mithai, Desserts",600,Rs.,N,N,N,N,2,3.6,9ACD32,Good,301
149,552,Haldiram's,1,India,New Delhi,"1454/2, Near Sheeshganj Gurudwara, Chandni Chowk, New Delhi",Chandni Chowk,"Chandni Chowk, New Delhi",28.656311,77.231669,"North Indian, South Indian, Chinese, Street Food, Fast Food, Mithai, Desserts",600,Rs.,N,N,N,N,2,3.9,9ACD32,Good,444
150,553,Haldiram's,1,India,New Delhi,"45, Ring Road, Lajpat Nagar 2, New Delhi",Lajpat Nagar 2,"Lajpat Nagar 2, New Delhi",28.565099,77.238405,"North Indian, South Indian, Chinese, Street Food, Fast Food, Mithai, Desserts",600,Rs.,N,N,N,N,2,3.8,9ACD32,Good,472
151,554,Haldiram's,1,India,Gurgaon,"Ground Floor, Sahara Mall, MG Road, Gurgaon","Sahara Mall, MG Road","Sahara Mall, MG Road, Gurgaon",28.479796,77.086889,"North Indian, South Indian, Chinese, Street Food, Fast Food, Mithai, Desserts",600,Rs.,N,N,N,N,2,3.6,9ACD32,Good,315
152,556,Kent's Fast Food,1,India,New Delhi,"29, Defence Colony Market, Defence Colony, New Delhi",Defence Colony,"Defence Colony, New Delhi",28.573643,77.230232,"Burger, Fast Food",500,Rs.,N,Y,N,N,2,3.7,9ACD32,Good,766
153,558,Kents Fast Food,1,India,New Delhi,"15/5, Community Centre, Phase 1, Industrial Area, Naraina, New Delhi",Naraina,"Naraina, New Delhi",28.632703,77.138183,"North Indian, Chinese, Fast Food",900,Rs.,N,N,N,N,2,2.8,FFBA00,Average,12
154,566,Hong Kong Express,1,India,New Delhi,"127, Flyover Market, Defence Colony, New Delhi",Defence Colony,"Defence Colony, New Delhi",28.578399,77.238764,"Chinese, Thai",700,Rs.,N,Y,N,N,2,3.8,9ACD32,Good,196
155,570,Moets Shack,1,India,New Delhi,"50, Defence Colony Market, Defence Colony, New Delhi",Defence Colony,"Defence Colony, New Delhi",28.573212,77.230412,"Seafood, Continental, European",1800,Rs.,Y,Y,N,N,3,3.7,9ACD32,Good,601
156,572,Madhuban,1,India,New Delhi,"18-19, PVR Anupam Complex, Community Center",PVR Anupam Complex,"PVR Anupam Complex, New Delhi",28.522917,77.207001,"North Indian, Mughlai, Chinese",850,Rs.,Y,N,N,N,2,3.1,CDD614,Average,151
157,573,4S Chinese Restaurant,1,India,New Delhi,"A-26, Defence Colony Market, Defence Colony, New Delhi",Defence Colony,"Defence Colony, New Delhi",28.573123,77.230412,"Chinese, Thai",700,Rs.,N,N,N,N,2,3.5,9ACD32,Good,215
158,575,Deez Biryani & Kebabs,1,India,Gurgaon,"S-27/17, Nathupura, DLF Phase 3, Gurgaon",DLF Phase 3,"DLF Phase 3, Gurgaon",28.487816,77.103659,"Biryani, North Indian, Mughlai",800,Rs.,N,Y,N,N,2,3.7,9ACD32,Good,371
159,576,Deez Biryani & Kebabs,1,India,New Delhi,"91-93, Flyover Market, Defence Colony, New Delhi",Defence Colony,"Defence Colony, New Delhi",28.577853,77.238674,"Biryani, North Indian, Mughlai",800,Rs.,Y,Y,N,N,2,3.7,9ACD32,Good,338
160,580,Chawnsan Chef,1,India,New Delhi,"108 & 126, Flyover Market, Defence Colony, New Delhi",Defence Colony,"Defence Colony, New Delhi",28.578049,77.238854,"Mughlai, North Indian, Chinese",700,Rs.,N,Y,N,N,2,3.4,CDD614,Average,104
161,582,Govardhan,1,India,New Delhi,"84, Adjacent Hero Motor Bike Showroom, Main Mehrauli Road, Adchini, New Delhi",Adchini,"Adchini, New Delhi",28.535523,77.196924,"South Indian, North Indian, Chinese",500,Rs.,N,Y,N,N,2,3.4,CDD614,Average,238
162,584,Nathu's Sweets,1,India,New Delhi,"F-17, Vijay Block, Laxmi Nagar, New Delhi",Laxmi Nagar,"Laxmi Nagar, New Delhi",28.634547,77.283502,"North Indian, South Indian, Street Food, Chinese, Fast Food, Mithai",400,Rs.,N,Y,N,N,1,2.1,FF7800,Poor,121
163,586,Nathu's Sweets,1,India,New Delhi,"2, Main Market, Sunder Nagar, New Delhi",Sunder Nagar,"Sunder Nagar, New Delhi",28.602520,77.240909,"North Indian, South Indian, Chinese, Street Food, Fast Food, Mithai, Desserts",600,Rs.,N,Y,N,N,2,3.3,CDD614,Average,173
164,588,Nathu's Sweets,1,India,New Delhi,"23-25, Bengali Market, Barakhamba Road, New Delhi",Barakhamba Road,"Barakhamba Road, New Delhi",28.629714,77.232116,"North Indian, South Indian, Street Food, Mithai",600,Rs.,N,Y,N,N,2,3.3,CDD614,Average,421
165,591,Nathu's Sweets,1,India,Noida,"G-63, Mansarover Shopping Complex, Sector 18, Noida",Sector 18,"Sector 18, Noida",28.568899,77.324283,"North Indian, South Indian, Chinese, Street Food, Fast Food, Mithai, Desserts",600,Rs.,N,Y,N,N,2,2.5,FFBA00,Average,211
166,594,Cafe Coffee Day,1,India,Noida,"G-54, Sector 18, Noida",Sector 18,"Sector 18, Noida",28.569665,77.323980,Cafe,450,Rs.,N,Y,N,N,1,3.6,9ACD32,Good,125
167,596,Cafe Coffee Day,1,India,New Delhi,"4, Rajiv Chowk, Connaught Place, New Delhi",Connaught Place,"Connaught Place, New Delhi",28.632961,77.219813,Cafe,450,Rs.,N,Y,N,N,1,3.4,CDD614,Average,277
168,598,Cafe Coffee Day,1,India,Gurgaon,"SCO-24, Main Market, Sector 31, Gurgaon",Sector 31,"Sector 31, Gurgaon",28.453237,77.050457,Cafe,450,Rs.,N,N,N,N,1,3.1,CDD614,Average,23
169,601,Cafe Coffee Day,1,India,New Delhi,"E-12, DDA Market, Masjid Moth, Greater Kailash (GK) 3, New Delhi",Greater Kailash (GK) 3,"Greater Kailash (GK) 3, New Delhi",28.536981,77.236000,Cafe,450,Rs.,N,N,N,N,1,3.2,CDD614,Average,33
170,602,Cafe Coffee Day - The Lounge,1,India,New Delhi,"14, Community Centre, New Friends Colony, New Delhi","Community Centre, New Friends Colony","Community Centre, New Friends Colony, New Delhi",28.562628,77.269034,Cafe,750,Rs.,N,N,N,N,2,3.2,CDD614,Average,42
171,606,Cafe Coffee Day,1,India,Gurgaon,"SCO 10, Vishal Mega Mart, Sector 14, Gurgaon",Sector 14,"Sector 14, Gurgaon",28.477505,77.046327,Cafe,450,Rs.,N,N,N,N,1,2.8,FFBA00,Average,34
172,609,Cafe Coffee Day,1,India,New Delhi,"13, South Campus, Satyaniketan, New Delhi",Satyaniketan,"Satyaniketan, New Delhi",28.588440,77.168827,Cafe,450,Rs.,N,N,N,N,1,3.3,CDD614,Average,78
173,611,Cafe Coffee Day,1,India,Gurgaon,"IBP Petrol Pump, Nathupur, DLF Phase 3, Gurgaon",DLF Phase 3,"DLF Phase 3, Gurgaon",28.490350,77.091585,Cafe,450,Rs.,N,N,N,N,1,3.2,CDD614,Average,26
174,613,Cafe Coffee Day,1,India,New Delhi,"Delhi Gymkhana Club, Golf Links, Race Course Road, Race Course, New Delhi",Race Course,"Race Course, New Delhi",28.599082,77.205892,Cafe,450,Rs.,N,N,N,N,1,2.9,FFBA00,Average,9
175,619,Cafe Coffee Day - The Lounge,1,India,New Delhi,"Peary Lal and Sons, 42, Janpath, New Delhi",Janpath,"Janpath, New Delhi",28.626429,77.220289,Cafe,750,Rs.,N,N,N,N,2,3.3,CDD614,Average,81
176,628,Cafe Coffee Day,1,India,New Delhi,"B6/6, Commercial Complex, Safdarjung Enclave, Safdarjung, New Delhi",Safdarjung,"Safdarjung, New Delhi",28.558909,77.196007,Cafe,450,Rs.,N,N,N,N,1,2.4,FF7800,Poor,28
177,631,Cafe Coffee Day,1,India,Gurgaon,"Upper Ground Floor, DLF Mega Mall, DLF Phase 1, Gurgaon","DLF Mega Mall, DLF Phase 1","DLF Mega Mall, DLF Phase 1, Gurgaon",28.475489,77.093595,Cafe,450,Rs.,N,N,N,N,1,2.6,FFBA00,Average,27
178,637,Cafe Coffee Day,1,India,New Delhi,"101-104, Ist Floor, Dinar Bhavan, Nehru Place, New Delhi",Nehru Place,"Nehru Place, New Delhi",28.549693,77.250798,Cafe,450,Rs.,N,Y,N,N,1,3.0,CDD614,Average,38
179,640,Cafe Coffee Day,1,India,New Delhi,"9, UB, Jawahar Nagar, Bungalow Road, Kamla Nagar, New Delhi",Kamla Nagar,"Kamla Nagar, New Delhi",28.681751,77.207248,Cafe,450,Rs.,N,N,N,N,1,3.3,CDD614,Average,82
180,641,Cafe Coffee Day,1,India,New Delhi,"Ground Floor, Community Centre, Naraina, New Delhi",Naraina,"Naraina, New Delhi",28.628710,77.136797,Cafe,450,Rs.,N,N,N,N,1,2.6,FFBA00,Average,23
181,650,Cafe Coffee Day,1,India,New Delhi,"22, New Market, Malviya Nagar, New Delhi",Malviya Nagar,"Malviya Nagar, New Delhi",28.537973,77.213329,Cafe,450,Rs.,N,N,N,N,1,2.5,FFBA00,Average,52
182,651,Cafe Coffee Day - The Lounge,1,India,New Delhi,"M-37, M Block Market, Greater Kailash (GK) 1, New Delhi",Greater Kailash (GK) 1,"Greater Kailash (GK) 1, New Delhi",28.549770,77.236519,Cafe,750,Rs.,N,N,N,N,2,2.6,FFBA00,Average,70
183,652,Cafe Coffee Day - The Lounge,1,India,New Delhi,"E-29, Main Market, Hauz Khas, New Delhi",Hauz Khas,"Hauz Khas, New Delhi",28.551084,77.207687,Cafe,750,Rs.,N,N,N,N,2,2.6,FFBA00,Average,76
184,658,Cafe Coffee Day,1,India,New Delhi,"Meherchand Market, Lodhi Colony, New Delhi",Lodhi Colony,"Lodhi Colony, New Delhi",28.584943,77.226537,Cafe,450,Rs.,N,N,N,N,1,2.3,FF7800,Poor,52
185,673,Wimpy,1,India,New Delhi,"31, Aurobindo Place Market, Hauz Khas, New Delhi",Hauz Khas,"Hauz Khas, New Delhi",28.552241,77.203923,"Fast Food, Burger",350,Rs.,N,N,N,N,1,2.6,FFBA00,Average,220
186,677,Chinese Hut,1,India,New Delhi,"E-6, Main Market, South Extension 2, New Delhi",South Extension 2,"South Extension 2, New Delhi",28.567590,77.221250,Chinese,500,Rs.,N,N,N,N,2,3.6,9ACD32,Good,87
187,678,MB's,1,India,New Delhi,"37, Defence Colony Market, Defence Colony, New Delhi",Defence Colony,"Defence Colony, New Delhi",28.573554,77.230232,"Continental, Chinese, North Indian",1600,Rs.,Y,N,N,N,3,3.1,CDD614,Average,128
188,680,Comesum,1,India,New Delhi,"Railway Station, Nizamuddin West, Nizamuddin, New Delhi",Nizamuddin,"Nizamuddin, New Delhi",28.589616,77.253043,"Fast Food, North Indian, South Indian",350,Rs.,N,N,N,N,1,2.2,FF7800,Poor,251
189,681,Comesum,1,India,New Delhi,"Old Delhi Railway Station, Mori Gate, Chandni Chowk, New Delhi",Chandni Chowk,"Chandni Chowk, New Delhi",28.660680,77.228021,"North Indian, Street Food, Chinese, South Indian",350,Rs.,N,N,N,N,1,2.5,FFBA00,Average,49
190,693,Baskin Robbins,1,India,New Delhi,"E 184, New, Rajinder Nagar, New Delhi",Rajinder Nagar,"Rajinder Nagar, New Delhi",28.638768,77.179356,Ice Cream,300,Rs.,N,N,N,N,1,3.3,CDD614,Average,32
191,702,Baskin Robbins,1,India,New Delhi,"C-8, Hotel Solo Victoria, Main Road, Near M Block Market, Greater Kailash (GK) 1, New Delhi",Greater Kailash (GK) 1,"Greater Kailash (GK) 1, New Delhi",28.548411,77.236833,Ice Cream,300,Rs.,N,Y,N,N,1,3.6,9ACD32,Good,56
192,703,August Moon,1,India,New Delhi,"11, JMD Kohinoor Mall, Masjid Moth, Greater Kailash (GK) 2, New Delhi","JMD Kohinoor Mall, Greater Kailash","JMD Kohinoor Mall, Greater Kailash, New Delhi",28.536699,77.238584,"Chinese, Thai",1250,Rs.,Y,Y,N,N,3,2.8,FFBA00,Average,142
193,705,Baskin Robbins,1,India,New Delhi,"A-1, Defence Colony Market, Defence Colony, New Delhi",Defence Colony,"Defence Colony, New Delhi",28.574066,77.229962,Ice Cream,300,Rs.,N,N,N,N,1,3.7,9ACD32,Good,55
194,709,Baskin Robbins,1,India,New Delhi,"67, Community Centre Market, New Friends Colony, New Delhi","Community Centre, New Friends Colony","Community Centre, New Friends Colony, New Delhi",28.562073,77.268352,Ice Cream,300,Rs.,N,Y,N,N,1,3.3,CDD614,Average,38
195,718,Americana Kitchen and Bar,1,India,Noida,"Ist Floor, 1-6, Centre Stage Mall, Sector 18, Noida","Centre Stage Mall, Sector 18","Centre Stage Mall, Sector 18, Noida",28.568343,77.322828,"American, Tex-Mex, Italian, Mexican, North Indian",2000,Rs.,Y,N,N,N,4,2.4,FF7800,Poor,221
196,730,Moets Curry Leaf,1,India,New Delhi,"50, Defence Colony Market, Defence Colony, New Delhi",Defence Colony,"Defence Colony, New Delhi",28.573212,77.230412,"North Indian, Mughlai, Kashmiri",1500,Rs.,Y,Y,N,N,3,3.5,9ACD32,Good,208
197,731,The Kathis,1,India,New Delhi,"GF-5, Community Centre, PVR Anupam Complex, Saket, New Delhi",PVR Anupam Complex,"PVR Anupam Complex, New Delhi",28.523478,77.207057,"Fast Food, North Indian",300,Rs.,N,Y,N,N,1,2.4,FF7800,Poor,109
198,732,The Kathis,1,India,New Delhi,"M-29, M Block Market, Greater Kailash (GK) 1, New Delhi",Greater Kailash (GK) 1,"Greater Kailash (GK) 1, New Delhi",28.549386,77.236249,Fast Food,300,Rs.,N,Y,N,N,1,3.0,CDD614,Average,67
199,736,Tibb's Frankie,1,India,New Delhi,"29, Defence Colony Market, Defence Colony, New Delhi",Defence Colony,"Defence Colony, New Delhi",28.573968,77.229873,Fast Food,300,Rs.,N,N,N,N,1,3.2,CDD614,Average,28
200,743,Daitchi,1,India,New Delhi,"E-19-A, Main Market, South Extension 2, New Delhi",South Extension 2,"South Extension 2, New Delhi",28.568008,77.219992,"Chinese, Japanese",1100,Rs.,N,N,N,N,3,3.5,9ACD32,Good,273
201,756,Duggal's Rasoi,1,India,New Delhi,"125, Flyover Market, Defence Colony, New Delhi",Defence Colony,"Defence Colony, New Delhi",28.578015,77.238495,"North Indian, Mughlai",600,Rs.,N,N,N,N,2,3.4,CDD614,Average,35
202,758,Arabian Nites,1,India,New Delhi,"59, Basant Lok Market, Vasant Vihar, New Delhi","Basant Lok Market, Vasant Vihar","Basant Lok Market, Vasant Vihar, New Delhi",28.557314,77.164212,Lebanese,450,Rs.,N,Y,N,N,1,3.5,9ACD32,Good,239
203,760,Moets Stone,1,India,New Delhi,"50, Moets Restaurant Complex, Defence Colony, New Delhi",Defence Colony,"Defence Colony, New Delhi",28.573212,77.230412,Italian,2000,Rs.,Y,Y,N,N,4,3.8,9ACD32,Good,354
204,763,Aka Saka,1,India,New Delhi,"28, Main Market, Defence Colony, New Delhi",Defence Colony,"Defence Colony, New Delhi",28.573033,77.230412,"Chinese, Japanese",1200,Rs.,Y,N,N,N,3,3.3,CDD614,Average,176
205,769,Adyar Ananda Bhavan,1,India,New Delhi,"S-18, Main Market, Green Park, New Delhi",Green Park,"Green Park, New Delhi",28.557235,77.202532,"South Indian, North Indian, Street Food, Chinese, Mithai",500,Rs.,N,Y,N,N,2,3.5,9ACD32,Good,368
206,771,Krips Restaurant,1,India,New Delhi,"59, Community Centre, Basant Lok Market, Vasant Vihar, New Delhi","Basant Lok Market, Vasant Vihar","Basant Lok Market, Vasant Vihar, New Delhi",28.557200,77.163888,"North Indian, Chinese",1000,Rs.,Y,Y,N,N,3,3.5,9ACD32,Good,193
207,773,Slice of Italy,1,India,New Delhi,"118, Shahpur Jat, New Delhi",Shahpur Jat,"Shahpur Jat, New Delhi",28.549516,77.215950,"Italian, Pizza, Bakery",700,Rs.,Y,Y,N,N,2,2.6,FFBA00,Average,274
208,775,Slice of Italy,1,India,New Delhi,"E-249, Rama Market, Nelson Mandela Marg, Vasant Vihar, New Delhi",Vasant Vihar,"Vasant Vihar, New Delhi",28.558890,77.170821,"Italian, Pizza, Bakery",700,Rs.,N,Y,N,N,2,2.8,FFBA00,Average,299
209,776,Slice of Italy,1,India,New Delhi,"Shop 147, Mehar Chand Market, Lodhi Colony, New Delhi",Lodhi Colony,"Lodhi Colony, New Delhi",28.582371,77.226902,"Italian, Pizza, Bakery",700,Rs.,Y,Y,N,N,2,3.3,CDD614,Average,171
210,782,Little Punjab,1,India,New Delhi,"C-6, Commercial Complex, SDA, New Delhi",SDA,"SDA, New Delhi",28.546894,77.196906,North Indian,200,Rs.,N,N,N,N,1,3.7,9ACD32,Good,85
211,785,Costa Coffee,1,India,New Delhi,"M-38, Greater Kailash (GK) 2, New Delhi",Greater Kailash (GK) 2,"Greater Kailash (GK) 2, New Delhi",28.533716,77.243246,Cafe,600,Rs.,N,N,N,N,2,3.5,9ACD32,Good,103
212,791,Costa Coffee,1,India,Noida,"36, The Great India Place Mall, Sector 38 A, Sector 38, Noida","The Great India Place, Sector 38","The Great India Place, Sector 38, Noida",28.567447,77.326071,Cafe,600,Rs.,N,N,N,N,2,3.5,9ACD32,Good,110
213,797,Costa Coffee,1,India,Gurgaon,"Ground Floor, MGF Mega City Mall, MG Road, Gurgaon","MGF Mega City Mall, MG Road","MGF Mega City Mall, MG Road, Gurgaon",28.479858,77.089407,Cafe,600,Rs.,N,N,N,N,2,3.3,CDD614,Average,31
214,799,Gulati,1,India,New Delhi,"6, Pandara Road Market, New Delhi",Pandara Road Market,"Pandara Road Market, New Delhi",28.608140,77.229733,"North Indian, Mughlai",1500,Rs.,N,Y,N,N,3,4.4,5BA829,Very Good,4373
215,800,Chicken Inn,1,India,New Delhi,"13-15, Pandara Road Market, New Delhi",Pandara Road Market,"Pandara Road Market, New Delhi",28.608041,77.229817,"North Indian, Mughlai, Chinese",1500,Rs.,Y,Y,N,N,3,3.6,9ACD32,Good,447
216,801,Havemore,1,India,New Delhi,"11-12, Pandara Road Market, New Delhi",Pandara Road Market,"Pandara Road Market, New Delhi",28.608048,77.229800,North Indian,1500,Rs.,Y,N,N,N,3,4.1,5BA829,Very Good,1157
217,803,Pindi,1,India,New Delhi,"16, Pandara Road Market, New Delhi",Pandara Road Market,"Pandara Road Market, New Delhi",28.607977,77.230019,"North Indian, Mughlai, Chinese",1700,Rs.,Y,Y,N,N,3,3.8,9ACD32,Good,337
218,807,Cosy Restaurant,1,India,New Delhi,"B-1/30, Hauz Khas, New Delhi",Hauz Khas,"Hauz Khas, New Delhi",28.551356,77.204358,"North Indian, Mughlai, Chinese",1100,Rs.,Y,Y,N,N,3,3.4,CDD614,Average,195
219,813,China Fare,1,India,New Delhi,"27-A, Khan Market, New Delhi",Khan Market,"Khan Market, New Delhi",28.599994,77.227695,Chinese,1000,Rs.,N,N,N,N,3,3.7,9ACD32,Good,243
220,815,Moti Mahal Delux,1,India,New Delhi,"20/48, Malcha Marg Shopping Complex, Diplomatic Enclave, Chanakyapuri, New Delhi",Chanakyapuri,"Chanakyapuri, New Delhi",28.601614,77.187113,"North Indian, Mughlai",1600,Rs.,Y,N,N,N,3,2.4,FF7800,Poor,164
221,816,Bawarchis,1,India,New Delhi,"25, Yashwant Place Market, Food Plaza, Chanakyapuri, New Delhi",Chanakyapuri,"Chanakyapuri, New Delhi",28.584251,77.191560,"Chinese, North Indian",700,Rs.,N,N,N,N,2,2.9,FFBA00,Average,16
222,819,Lotus Garden,1,India,New Delhi,"SF-9, Bhikaji Cama Place, New Delhi",Bhikaji Cama Place,"Bhikaji Cama Place, New Delhi",28.569207,77.187005,"Chinese, Japanese, Thai",2000,Rs.,Y,N,N,N,4,3.2,CDD614,Average,59
223,823,Al Kuresh,1,India,New Delhi,"7, Yashwant Place Market, Food Plaza, Chanakyapuri, New Delhi",Chanakyapuri,"Chanakyapuri, New Delhi",28.584146,77.191874,"Chinese, North Indian",850,Rs.,N,Y,N,N,2,3.3,CDD614,Average,85
224,824,Chimney Sizzlers,1,India,New Delhi,"V-10 & 16, Yashwant Place Market, Food Plaza, Chanakyapuri, New Delhi",Chanakyapuri,"Chanakyapuri, New Delhi",28.584300,77.191605,Chinese,800,Rs.,Y,Y,N,N,2,3.7,9ACD32,Good,137
225,828,Otik Hotshop,1,India,Noida,"63, C-134/B, Supertech Shopprix Mall, Sector 61, Noida","Supertech Shopprix Mall, Sector 61","Supertech Shopprix Mall, Sector 61, Noida",28.597103,77.364833,"North Indian, Mughlai",600,Rs.,N,Y,N,N,2,3.1,CDD614,Average,147
226,834,Berco's,1,India,Noida,"O-1, Sector 12, Noida",Sector 12,"Sector 12, Noida",28.593984,77.338895,"Chinese, Thai",1100,Rs.,N,Y,N,N,3,3.7,9ACD32,Good,1182
227,836,Pind Balluchi,1,India,Gurgaon,"Vatika Grand, Near Leisure Valley, Sector 29, Gurgaon",Sector 29,"Sector 29, Gurgaon",28.468041,77.064406,"North Indian, Mughlai",800,Rs.,N,Y,N,N,2,3.4,CDD614,Average,1022
228,837,Pind Balluchi,1,India,New Delhi,"J-2/1, BK Dutt Market, Rajouri Garden, New Delhi",Rajouri Garden,"Rajouri Garden, New Delhi",28.647660,77.120364,"North Indian, Mughlai",800,Rs.,Y,N,N,N,2,3.6,9ACD32,Good,622
229,844,Khan Chacha,1,India,New Delhi,"Shop 50, 1st Floor, Middle Lane, Khan Market, New Delhi",Khan Market,"Khan Market, New Delhi",28.600746,77.227313,"Mughlai, North Indian",650,Rs.,N,N,N,N,2,3.7,9ACD32,Good,2860
230,845,Milan Food,1,India,New Delhi,"5, Yashwant Place, Food Plaza, Near Chanakya Cinema, Chanakyapuri, New Delhi",Chanakyapuri,"Chanakyapuri, New Delhi",28.584138,77.191785,"Chinese, North Indian",650,Rs.,N,N,N,N,2,0.0,CBCBC8,Not rated,2
231,846,Bamboo Chopstix,1,India,New Delhi,"21, Yashwant Place, Food Plaza, Chanakyapuri, New Delhi",Chanakyapuri,"Chanakyapuri, New Delhi",28.584300,77.191605,"Chinese, North Indian",700,Rs.,N,N,N,N,2,2.7,FFBA00,Average,8
232,847,Laguna,1,India,New Delhi,"18, Yashwant Place, Food Plaza, Chanakyapuri, New Delhi",Chanakyapuri,"Chanakyapuri, New Delhi",28.584309,77.191695,"Chinese, North Indian",900,Rs.,N,N,N,N,2,3.4,CDD614,Average,60
233,848,Chinese Bite,1,India,New Delhi,"12 & 13, Food Plaza, Yashwant Place, Chanakyapuri, New Delhi",Chanakyapuri,"Chanakyapuri, New Delhi",28.584293,77.191744,"Chinese, North Indian, Seafood",700,Rs.,N,N,N,N,2,2.8,FFBA00,Average,31
234,849,China Town Sizzlers,1,India,New Delhi,"V-15, Yashwant Place Market, Food Plaza, Chanakyapuri, New Delhi",Chanakyapuri,"Chanakyapuri, New Delhi",28.584251,77.191560,Chinese,800,Rs.,N,N,N,N,2,3.4,CDD614,Average,34
235,850,New Zaika,1,India,New Delhi,"12 & 13, Food Plaza, Yashwant Place, Chanakyapuri, New Delhi",Chanakyapuri,"Chanakyapuri, New Delhi",28.584138,77.191785,"Chinese, North Indian",700,Rs.,N,N,N,N,2,3.1,CDD614,Average,10
236,851,Tamil Nadu House Canteen,1,India,New Delhi,"Opposite Chanakya Theatre, Chanakyapuri, New Delhi",Chanakyapuri,"Chanakyapuri, New Delhi",28.583066,77.190886,"South Indian, Chettinad, North Indian, Chinese",600,Rs.,N,N,N,N,2,3.4,CDD614,Average,161
237,852,Chinese Garden,1,India,New Delhi,"S14, Yashwant Place, Food Plaza, Chanakyapuri, New Delhi",Chanakyapuri,"Chanakyapuri, New Delhi",28.584320,77.191558,Chinese,900,Rs.,Y,N,N,N,2,3.2,CDD614,Average,17
238,853,Madras Cafe,1,India,Gurgaon,"SCO 17, Near Huda Office, Sector 14, Gurgaon",Sector 14,"Sector 14, Gurgaon",28.476629,77.045607,"South Indian, North Indian, Chinese, Fast Food",300,Rs.,N,N,N,N,1,3.3,CDD614,Average,69
239,870,Nizam's Kathi Kabab,1,India,New Delhi,"H-5/6, Plaza Building, Connaught Place, New Delhi",Connaught Place,"Connaught Place, New Delhi",28.634979,77.219364,"North Indian, Fast Food",900,Rs.,N,N,N,N,2,3.8,9ACD32,Good,1761
240,872,Bisque Bakery,1,India,Gurgaon,"133/134, Central Arcade, DLF Phase 2, Gurgaon","Central Arcade, DLF Phase 2, Gurgaon","Central Arcade, DLF Phase 2, Gurgaon, Gurgaon",28.480759,77.085720,"Bakery, Fast Food",500,Rs.,N,Y,N,N,2,3.9,9ACD32,Good,415
241,887,Shamji Sweets,1,India,Gurgaon,"289/2, Old Delhi Road, Near Telephone Exchange, Sector 14, Gurgaon",Sector 14,"Sector 14, Gurgaon",28.470213,77.039450,"Mithai, South Indian, Chinese, Street Food, North Indian",600,Rs.,N,N,N,N,2,2.9,FFBA00,Average,26
242,889,KB's Kulfi & Icecream,1,India,Gurgaon,"20, Opposite Plaza Hotel, Old Delhi Road, Sector 14, Gurgaon",Sector 14,"Sector 14, Gurgaon",28.475487,77.043988,Ice Cream,200,Rs.,N,Y,N,N,1,3.3,CDD614,Average,43
243,892,Green's,1,India,Gurgaon,"SCO 23, Housing Board Shopping Complex, Saraswati Vihar, MG Road, Gurgaon",MG Road,"MG Road, Gurgaon",28.475737,77.082438,"Chinese, North Indian, South Indian, Street Food",350,Rs.,N,Y,N,N,1,2.3,FF7800,Poor,31
244,894,Raj Restaurant,1,India,Gurgaon,"10, Green Woods Plaza, Green Wood City, Sector 45, Gurgaon",Sector 45,"Sector 45, Gurgaon",28.444858,77.059623,"Chinese, North Indian, Mughlai",700,Rs.,N,Y,N,N,2,2.4,FF7800,Poor,92
245,899,Saravana Bhavan,1,India,New Delhi,"50, Janpath, New Delhi",Janpath,"Janpath, New Delhi",28.627071,77.219588,South Indian,500,Rs.,N,Y,N,N,2,4.2,5BA829,Very Good,1869
246,900,Saravana Bhavan,1,India,New Delhi,"P-13, Connaught Circus, Connaught Place, New Delhi",Connaught Place,"Connaught Place, New Delhi",28.632358,77.216310,South Indian,500,Rs.,N,Y,N,N,2,4.3,5BA829,Very Good,5172
247,905,Taste of China,1,India,New Delhi,"N-18, Outer Circle, Opposite Kasturba Gandhi Marg, Connaught Place, New Delhi",Connaught Place,"Connaught Place, New Delhi",28.630084,77.220475,"Chinese, Thai",1200,Rs.,N,Y,N,N,3,3.5,9ACD32,Good,327
248,908,Dawat Khana,1,India,New Delhi,"17, Community Center, New Friends Colony, New Delhi","Community Centre, New Friends Colony","Community Centre, New Friends Colony, New Delhi",28.562384,77.268801,"North Indian, Mughlai, Chinese",1600,Rs.,Y,Y,N,N,3,2.5,FFBA00,Average,82
249,910,United Coffee House,1,India,New Delhi,"E-15, Connaught Place, New Delhi",Connaught Place,"Connaught Place, New Delhi",28.632471,77.221250,"North Indian, European, Asian, Mediterranean",2200,Rs.,Y,N,N,N,4,4.1,5BA829,Very Good,1838
250,920,Shiv Shakti Vaishno Bhojnalaya,1,India,New Delhi,"39/1, Community Centre, East of Kailash, New Delhi",East of Kailash,"East of Kailash, New Delhi",28.558723,77.246041,North Indian,500,Rs.,N,N,N,N,2,3.1,CDD614,Average,22
251,924,Eat n Joy,1,India,New Delhi,"16, Community Center, New Friends Colony, New Delhi","Community Centre, New Friends Colony","Community Centre, New Friends Colony, New Delhi",28.561413,77.268487,"North Indian, Mughlai",500,Rs.,N,N,N,N,2,3.2,CDD614,Average,24
252,927,Moksha,1,India,New Delhi,"8, Community Center, New Friends Colony, New Delhi","Community Centre, New Friends Colony","Community Centre, New Friends Colony, New Delhi",28.562312,77.269067,North Indian,1400,Rs.,Y,Y,N,N,3,3.7,9ACD32,Good,110
253,928,Sona Restaurant,1,India,New Delhi,"5, Main Market, Yusuf Sarai, New Delhi",Yusuf Sarai,"Yusuf Sarai, New Delhi",28.561800,77.207269,"North Indian, Mughlai",450,Rs.,N,N,N,N,1,3.2,CDD614,Average,30
254,929,Pebble Street,1,India,New Delhi,"8, Community Center, New Friends Colony, New Delhi","Community Centre, New Friends Colony","Community Centre, New Friends Colony, New Delhi",28.562538,77.268938,"Italian, Tex-Mex, Continental, North Indian",2400,Rs.,Y,Y,N,N,4,3.9,9ACD32,Good,886
255,930,Zen,1,India,New Delhi,"B-25, Connaught Place, New Delhi",Connaught Place,"Connaught Place, New Delhi",28.634253,77.219274,"Chinese, Japanese, Italian, Seafood",1500,Rs.,Y,Y,N,N,3,3.5,9ACD32,Good,1027
256,937,KFC,1,India,Noida,"P-21, Near Vodafone Store, Sector 18 Market, Sector 18, Noida",Sector 18,"Sector 18, Noida",28.568766,77.324964,"American, Fast Food, Burger",500,Rs.,N,Y,N,N,2,2.7,FFBA00,Average,608
257,948,Waves,1,India,New Delhi,"A-4, Sarvodaya Enclave, Adchini, New Delhi",Adchini,"Adchini, New Delhi",28.538666,77.198808,"North Indian, Chinese",1500,Rs.,Y,Y,N,N,3,3.5,9ACD32,Good,141
258,954,Karnataka,1,India,New Delhi,"60/5, Yusuf Sarai Market, Yusuf Sarai, New Delhi",Yusuf Sarai,"Yusuf Sarai, New Delhi",28.559442,77.207237,"South Indian, North Indian, Chinese",500,Rs.,N,Y,N,N,2,3.7,9ACD32,Good,334
259,964,The Dragon Hucks,1,India,New Delhi,"D-2/12, Main Market, Model Town 3, New Delhi",Model Town 3,"Model Town 3, New Delhi",28.709292,77.185316,Chinese,800,Rs.,Y,N,N,N,2,3.3,CDD614,Average,97
260,965,Sethi's Restaurant & Barbeque,1,India,New Delhi,"4-8-9, DDA Market, J Block, Community Centre, Rajouri Garden, New Delhi",Rajouri Garden,"Rajouri Garden, New Delhi",28.639367,77.120096,"North Indian, Chinese",700,Rs.,N,Y,N,N,2,3.7,9ACD32,Good,422
261,966,Dhaba,1,India,New Delhi,"A-5, Vishal Enclave, Main Najafgarh Road, Rajouri Garden, New Delhi",Rajouri Garden,"Rajouri Garden, New Delhi",28.647435,77.119232,"Chinese, North Indian",1100,Rs.,N,N,N,N,3,3.7,9ACD32,Good,662
262,967,Grand Plaza,1,India,New Delhi,"B-1, Model Town 2, New Delhi",Model Town 2,"Model Town 2, New Delhi",28.705181,77.190077,"North Indian, Chinese, Fast Food",800,Rs.,N,Y,N,N,2,3.3,CDD614,Average,255
263,969,The Tandoor,1,India,New Delhi,"58, DDA Complex, J Block, Rajouri Garden, New Delhi",Rajouri Garden,"Rajouri Garden, New Delhi",28.638913,77.120204,"North Indian, Chinese",750,Rs.,Y,Y,N,N,2,2.6,FFBA00,Average,45
264,973,The Kafilla,1,India,New Delhi,"WZ-93, Near Metro Pillar 427, Tatarpur, Tagore Garden, New Delhi",Tagore Garden,"Tagore Garden, New Delhi",28.645565,77.115593,North Indian,600,Rs.,N,N,N,N,2,3.0,CDD614,Average,5
265,974,Paramjeet Machi Wala,1,India,New Delhi,"50-51, J Block Community Centre, Opposite Surya Continental, Rajouri Garden, New Delhi",Rajouri Garden,"Rajouri Garden, New Delhi",28.638550,77.120213,"North Indian, Mughlai",750,Rs.,N,Y,N,N,2,3.4,CDD614,Average,53
266,977,Chawla Family Restaurant,1,India,New Delhi,"52-53,  Opposite Surya, DDA Market, Rajouri Garden, New Delhi",Rajouri Garden,"Rajouri Garden, New Delhi",28.638777,77.120096,"North Indian, Chinese",700,Rs.,N,Y,N,N,2,3.2,CDD614,Average,93
267,978,Bal Gopal,1,India,New Delhi,"46, DDA Market, Opposite Surya Continental, Rajouri Garden, New Delhi",Rajouri Garden,"Rajouri Garden, New Delhi",28.638394,77.120461,"North Indian, Mughlai",500,Rs.,N,Y,N,N,2,3.4,CDD614,Average,49
268,980,Invitation,1,India,New Delhi,"3, Community Centre, Ashok Vihar Phase 2, New Delhi",Ashok Vihar Phase 2,"Ashok Vihar Phase 2, New Delhi",28.696123,77.179445,"North Indian, Chinese",1300,Rs.,Y,N,N,N,3,3.6,9ACD32,Good,457
269,982,Kabab Factory,1,India,New Delhi,"F-14/55, Ground Floor, Model Town 2, New Delhi",Model Town 2,"Model Town 2, New Delhi",28.708626,77.191427,"North Indian, Mughlai, Chinese",700,Rs.,N,N,N,N,2,3.0,CDD614,Average,12
270,993,Al Jawahar,1,India,New Delhi,"8, Jama Masjid - Matia Mahal Road, Matia Mahal, Opposite Gate 1, Jama Masjid, New Delhi",Jama Masjid,"Jama Masjid, New Delhi",28.649621,77.232702,"Mughlai, North Indian",600,Rs.,N,N,N,N,2,3.8,9ACD32,Good,1585
271,997,China Club,1,India,Gurgaon,"Lobby Level, Tower C, Global Business Park, MG Road, Gurgaon",MG Road,"MG Road, Gurgaon",28.480054,77.102037,"Chinese, Asian",2000,Rs.,N,N,N,N,4,3.8,9ACD32,Good,283
272,998,Suribachi,1,India,New Delhi,"T-540, Panchshila Park, Malviya Nagar, New Delhi",Malviya Nagar,"Malviya Nagar, New Delhi",28.539624,77.213276,"Asian, North Indian, Continental",1500,Rs.,Y,Y,N,N,3,3.5,9ACD32,Good,104
273,1018,Mainland China,1,India,New Delhi,"Plot 4, Local Shopping Centre, Masjid Moth, Greater Kailash (GK) 2, New Delhi",Greater Kailash (GK) 2,"Greater Kailash (GK) 2, New Delhi",28.537335,77.238674,Chinese,1800,Rs.,Y,Y,N,N,3,3.7,9ACD32,Good,780
274,1019,Pizza Man,1,India,Gurgaon,"Opposite Sector 7, Huda Market, Old Railway Road, Gurgaon",Old Railway Road,"Old Railway Road, Gurgaon",28.472148,77.018641,"Pizza, Fast Food",400,Rs.,N,N,N,N,1,2.9,FFBA00,Average,8
275,1021,Open Oven,1,India,New Delhi,"E-564, Greater Kailash (GK) 2, New Delhi",Greater Kailash (GK) 2,"Greater Kailash (GK) 2, New Delhi",28.539352,77.240157,"Bakery, Desserts, Fast Food",250,Rs.,N,Y,N,N,1,3.7,9ACD32,Good,290
276,1023,Open Oven,1,India,New Delhi,"1, GF-58, The India Mall, 1 Community Center, New Friends Colony, New Delhi","The India Mall, New Friends Colony","The India Mall, New Friends Colony, New Delhi",28.567481,77.269154,"Bakery, Desserts, Fast Food",250,Rs.,N,N,N,N,1,3.4,CDD614,Average,109
277,1028,Apni Rasoi,1,India,Gurgaon,"U 1/52-53, DLF Phase 3, Gurgaon",DLF Phase 3,"DLF Phase 3, Gurgaon",28.491291,77.093634,"North Indian, Chinese",400,Rs.,N,Y,N,N,1,3.0,CDD614,Average,160
278,1029,Mini's Royal Cafe,1,India,Gurgaon,"Krishna Colony Corner, Near Taneja Hospital, New Colony, Old Railway Road, Gurgaon",Old Railway Road,"Old Railway Road, Gurgaon",28.467020,77.013644,"North Indian, Chinese",500,Rs.,N,N,N,N,2,3.3,CDD614,Average,21
279,1030,Moti Restaurant,1,India,New Delhi,"16, Main Market, Malviya Nagar, New Delhi",Malviya Nagar,"Malviya Nagar, New Delhi",28.536674,77.212114,"North Indian, South Indian, Chinese, Mughlai",550,Rs.,N,Y,N,N,2,2.4,FF7800,Poor,137
280,1036,The Delhi Heights,1,India,New Delhi,"2 & 3, E-6/12, Main Road, Malviya Nagar, New Delhi",Malviya Nagar,"Malviya Nagar, New Delhi",28.532783,77.207800,"North Indian, Mughlai, Chinese",800,Rs.,Y,Y,N,N,2,2.8,FFBA00,Average,198
281,1037,Cafe Rendezvous,1,India,New Delhi,"T-540, The Panchshila Rendezvous, Panchshila Park, Malviya Nagar, New Delhi",Malviya Nagar,"Malviya Nagar, New Delhi",28.539621,77.213274,"Mexican, Italian, North Indian, Continental, Asian",1550,Rs.,Y,Y,N,N,3,3.3,CDD614,Average,191
282,1040,Karim's,1,India,New Delhi,"40-B, Corner Market, Malviya Nagar, New Delhi",Malviya Nagar,"Malviya Nagar, New Delhi",28.538343,77.214667,"Mughlai, North Indian",800,Rs.,Y,Y,N,N,2,3.0,CDD614,Average,183
283,1041,Hot Pot,1,India,New Delhi,"F Block, Near Mother Diary, Opposite Ramlila Ground, Model Town 2, New Delhi",Model Town 2,"Model Town 2, New Delhi",28.706859,77.190708,Chinese,500,Rs.,N,N,N,N,2,3.1,CDD614,Average,105
284,1044,Sugandh,1,India,New Delhi,"4702/21, Ansari Road, Daryaganj, New Delhi",Daryaganj,"Daryaganj, New Delhi",28.645175,77.243614,North Indian,400,Rs.,N,N,N,N,1,3.7,9ACD32,Good,57
285,1054,Alkakori,1,India,New Delhi,"Crossing North Avenue Road, Punjabi Bagh West, Punjabi Bagh, New Delhi",Punjabi Bagh,"Punjabi Bagh, New Delhi",28.666422,77.127890,"North Indian, Mughlai",850,Rs.,N,Y,N,N,2,3.6,9ACD32,Good,198
286,1055,Embassy,1,India,New Delhi,"2-13, Alipur Road, Civil Lines, New Delhi",Civil Lines,"Civil Lines, New Delhi",28.676656,77.225202,"Chinese, North Indian, Mughlai",1200,Rs.,Y,Y,N,N,3,3.0,CDD614,Average,126
287,1056,New Minar,1,India,New Delhi,"M-65, M Block Market, Greater Kailash (GK) 1, New Delhi",Greater Kailash (GK) 1,"Greater Kailash (GK) 1, New Delhi",28.550868,77.234425,"North Indian, Mughlai",1250,Rs.,Y,N,N,N,3,3.6,9ACD32,Good,229
288,1060,Flaming Chilli Pepper,1,India,New Delhi,"1249, Aruna Asaf Ali Marg, Opposite Fortis Hospital, Vasant Kunj, New Delhi",Vasant Kunj,"Vasant Kunj, New Delhi",28.519173,77.161180,"Chinese, Italian, North Indian",900,Rs.,Y,Y,N,N,2,3.8,9ACD32,Good,286
289,1070,Subway,1,India,Noida,"B-14, K.J Enterprises, Sector 18, Noida",Sector 18,"Sector 18, Noida",28.570088,77.324873,"American, Fast Food, Salad, Healthy Food",500,Rs.,N,Y,N,N,2,3.8,9ACD32,Good,268
290,1078,Pizza Hut,1,India,New Delhi,"17, Mangalam Place, Aggarwal City Plaza, Rohini, New Delhi","Aggarwal City Plaza, Rohini","Aggarwal City Plaza, Rohini, New Delhi",28.700694,77.117263,"Italian, Pizza, Fast Food",1000,Rs.,N,Y,N,N,3,2.6,FFBA00,Average,125
291,1079,Pizza Hut,1,India,New Delhi,"Shop 26 & 27, TDI Mall, Rajouri Garden, New Delhi","TDI Mall, Rajouri Garden","TDI Mall, Rajouri Garden, New Delhi",28.650757,77.120740,"Italian, Pizza, Fast Food",1000,Rs.,N,Y,N,N,3,3.6,9ACD32,Good,141
292,1096,Haldiram's,1,India,Gurgaon,"3rd Floor, MGF Metropolitan Mall, MG Road, Gurgaon","MGF Metropolitan Mall, MG Road","MGF Metropolitan Mall, MG Road, Gurgaon",28.480729,77.080280,"North Indian, South Indian, Chinese, Street Food, Fast Food, Mithai, Desserts",600,Rs.,N,N,N,N,2,3.6,9ACD32,Good,185
293,1104,Polka Pastry & Snack Bar,1,India,New Delhi,"BA-3A, Janakpuri, New Delhi",Janakpuri,"Janakpuri, New Delhi",28.631115,77.096670,"Bakery, Fast Food",350,Rs.,N,N,N,N,1,3.2,CDD614,Average,62
294,1106,Deepak Vaishno Dhaba,1,India,New Delhi,"Stalls A-F, DDA Market, Jail Road, New Delhi",Jail Road,"Jail Road, New Delhi",28.631088,77.098102,North Indian,350,Rs.,N,N,N,N,1,3.4,CDD614,Average,59
295,1115,The Golden Dragon,1,India,New Delhi,"SF-47, West Gate Mall, Rajouri Garden, New Delhi","West Gate Mall, Rajouri Garden","West Gate Mall, Rajouri Garden, New Delhi",28.652978,77.123116,"Chinese, Seafood, Japanese",1500,Rs.,Y,N,N,N,3,3.5,9ACD32,Good,178
296,1120,Dili's Chawla Chik Inn,1,India,New Delhi,"2/81, Club Road, Punjabi Bagh, New Delhi",Punjabi Bagh,"Punjabi Bagh, New Delhi",28.665983,77.126872,North Indian,650,Rs.,N,N,N,N,2,3.1,CDD614,Average,45
297,1123,Hill Chillz 26,1,India,New Delhi,"A-5, NN Tower, Road 44, Rani Bagh, Pitampura, New Delhi",Pitampura,"Pitampura, New Delhi",28.688373,77.135060,"Ice Cream, Desserts",150,Rs.,N,N,N,N,1,3.1,CDD614,Average,41
298,1127,Castle 9,1,India,New Delhi,"B-45/47, 1st Floor, Near PVR Plaza, Connaught Place, New Delhi",Connaught Place,"Connaught Place, New Delhi",28.634857,77.219498,"Finger Food, Continental, North Indian, Chinese",1350,Rs.,Y,N,N,N,3,3.1,CDD614,Average,1099
299,1129,Republic of Chicken,1,India,New Delhi,"451 & 452, Ground Floor, Lila Ram Market, Masjid Moth, South Extension 2, New Delhi",South Extension 2,"South Extension 2, New Delhi",28.537448,77.238450,"Raw Meats, Fast Food",400,Rs.,N,N,N,N,1,0.0,CBCBC8,Not rated,1
300,1131,The Plaza Solitaire,1,India,Gurgaon,"30, HUDA Commercial Centre, Delhi Gurgaon Road, Sector 14, Gurgaon",Sector 14,"Sector 14, Gurgaon",28.475146,77.044168,"North Indian, Mughlai, Chinese, South Indian",900,Rs.,Y,N,N,N,2,3.3,CDD614,Average,32
301,1140,Ridhi Sidhi,1,India,Gurgaon,"Bhim Nagar, Near Ram Lila Ground, Sector 14, Gurgaon",Sector 14,"Sector 14, Gurgaon",28.470353,77.020392,"North Indian, Chinese, South Indian",500,Rs.,N,Y,N,N,2,3.0,CDD614,Average,30
302,1145,Romi Da Dhaba,1,India,Gurgaon,"Opposite Air Force School, Old Delhi Road, Sector 14, Gurgaon",Sector 14,"Sector 14, Gurgaon",28.475059,77.043269,North Indian,450,Rs.,N,N,N,N,1,3.2,CDD614,Average,34
303,1147,Gola Northend,1,India,New Delhi,"Plot 5, Local Shopping Centre, Gujranwala Town, New Delhi",Gujranwala Town,"Gujranwala Town, New Delhi",28.701458,77.189538,"Mughlai, North Indian, Chinese",1300,Rs.,Y,N,N,N,3,3.1,CDD614,Average,155
304,1155,Giani's di Hatti,1,India,New Delhi,"651/52, Church Mission Road, Fatehpuri, Chandni Chowk, New Delhi",Chandni Chowk,"Chandni Chowk, New Delhi",28.657974,77.223358,"Ice Cream, Mithai, North Indian, Street Food",150,Rs.,N,N,N,N,1,4.3,5BA829,Very Good,521
305,1158,Giani's,1,India,New Delhi,"A-13, Vishal Enclave, Rajouri Garden, New Delhi",Rajouri Garden,"Rajouri Garden, New Delhi",28.648050,77.120075,"Ice Cream, Desserts",400,Rs.,N,Y,N,N,1,3.9,9ACD32,Good,122
306,1185,Americana Kitchen and Bar,1,India,New Delhi,"Shop 5, Ground Floor, Satyam Cineplex, Nehru Place, New Delhi",Nehru Place,"Nehru Place, New Delhi",28.550158,77.250977,"American, Tex-Mex, Italian, Mexican, North Indian",1900,Rs.,Y,N,N,N,3,2.8,FFBA00,Average,105
307,1188,Lodi - The Garden Restaurant,1,India,New Delhi,"Opposite Mausam Bhawan, Near Gate 1, Lodhi Road, New Delhi",Lodhi Road,"Lodhi Road, New Delhi",28.590443,77.221058,"European, Lebanese, Mediterranean",2600,Rs.,Y,Y,N,N,4,4.2,5BA829,Very Good,2549
308,1192,Apni Rasoi,1,India,New Delhi,"1, Pocket B, DDA Market, Ashok Vihar Phase 3, New Delhi",Ashok Vihar Phase 3,"Ashok Vihar Phase 3, New Delhi",28.692351,77.177678,North Indian,300,Rs.,N,N,N,N,1,3.0,CDD614,Average,78
309,1197,Daawat E Mezbaan,1,India,New Delhi,"26A/UA, Bungalow Road, Kamla Nagar, New Delhi",Kamla Nagar,"Kamla Nagar, New Delhi",28.679916,77.208419,"Mughlai, North Indian",800,Rs.,N,N,N,N,2,3.1,CDD614,Average,77
310,1199,Shagun,1,India,New Delhi,"F-16, Opposite NDPL Office, Vijay Nagar, New Delhi",Vijay Nagar,"Vijay Nagar, New Delhi",28.693418,77.204722,"Chinese, Thai, Tibetan, Japanese",800,Rs.,N,Y,N,N,2,3.9,9ACD32,Good,419
311,1205,Kaleva,1,India,New Delhi,"17, Shanker Vihar, Laxmi Nagar, New Delhi",Laxmi Nagar,"Laxmi Nagar, New Delhi",28.637897,77.288923,"North Indian, Mithai",400,Rs.,N,N,N,N,1,3.3,CDD614,Average,61
312,1215,Kebabs & Curries,1,India,New Delhi,"G-14, Bhanot Corner, R Block, Greater Kailash (GK) 1, New Delhi",Greater Kailash (GK) 1,"Greater Kailash (GK) 1, New Delhi",28.546810,77.243569,"North Indian, Mughlai",600,Rs.,N,Y,N,N,2,3.7,9ACD32,Good,227
313,1216,Oriental Fusion,1,India,Gurgaon,"A-112 & 114, Supermart 1, DLF Phase 4, Gurgaon","Supermart 1, DLF Phase 4","Supermart 1, DLF Phase 4, Gurgaon",28.462528,77.087249,"Chinese, Thai, Malaysian, Indonesian",650,Rs.,Y,Y,N,N,2,3.3,CDD614,Average,199
314,1218,China Garden,1,India,New Delhi,"M-73, M Block Market, Greater Kailash (GK) 2, New Delhi",Greater Kailash (GK) 2,"Greater Kailash (GK) 2, New Delhi",28.532817,77.243178,Chinese,1800,Rs.,Y,N,N,N,3,3.8,9ACD32,Good,663
315,1226,Pind Balluchi,1,India,Noida,"The Great India Place Mall, Sector 38-A, Near Sector 38, Sector 38, Noida","The Great India Place, Sector 38","The Great India Place, Sector 38, Noida",28.567159,77.325398,"North Indian, Mughlai",800,Rs.,Y,Y,N,N,2,3.3,CDD614,Average,793
316,1244,TGI Friday's,1,India,Noida,"319-320, 3rd Floor, The Great India Place Mall, Sector 38-A, Near Sector 38, Noida","The Great India Place, Sector 38","The Great India Place, Sector 38, Noida",28.567683,77.326206,"American, Tex-Mex",2500,Rs.,Y,Y,N,N,4,3.5,9ACD32,Good,1147
317,1245,TGI Friday's,1,India,Gurgaon,"Ground Floor, MGF Metropolitan Mall, MG Road, Gurgaon","MGF Metropolitan Mall, MG Road","MGF Metropolitan Mall, MG Road, Gurgaon",28.481006,77.080119,"American, Tex-Mex",2500,Rs.,Y,Y,N,N,4,3.7,9ACD32,Good,730
318,1258,Eleven to Eleven,1,India,New Delhi,"3rd Floor, Cross River Mall, Karkardooma, New Delhi","Cross River Mall, Karkardooma","Cross River Mall, Karkardooma, New Delhi",28.657840,77.302714,"North Indian, Chinese",800,Rs.,N,Y,N,N,2,3.1,CDD614,Average,106
319,1267,Yellow Mirchi - Hotel City Park,1,India,New Delhi,"Hotel City Park, KP Block, Pitampura, New Delhi","Hotel City Park, Pitampura","Hotel City Park, Pitampura, New Delhi",28.705739,77.143219,North Indian,2500,Rs.,Y,N,N,N,4,3.9,9ACD32,Good,259
320,1270,Urban Punjab,1,India,New Delhi,"G-7, Pankaj Plaza 2, Karkardooma Community Center, Opposite Dayanand Vihar, Karkardooma, New Delhi",Karkardooma,"Karkardooma, New Delhi",28.648036,77.302907,"North Indian, Chinese",750,Rs.,Y,N,N,N,2,3.5,9ACD32,Good,132
321,1274,The Chaupal Bar And Restaurant,1,India,New Delhi,"F3/11, Krishna Nagar, New Delhi",Krishna Nagar,"Krishna Nagar, New Delhi",28.659889,77.283391,"Chinese, North Indian",800,Rs.,Y,N,N,N,2,2.9,FFBA00,Average,14
322,1275,Code,1,India,New Delhi,"S-20, 2nd Floor, Star City Mall, Mayur Vihar Phase 1, New Delhi","Star City Mall, Mayur Vihar Phase 1","Star City Mall, Mayur Vihar Phase 1, New Delhi",28.592419,77.296561,"North Indian, Mughlai, Chinese",850,Rs.,Y,Y,N,N,2,2.5,FFBA00,Average,117
323,1284,Sapra Pastry Treat,1,India,Gurgaon,"H-6, Qutab Plaza, DLF Phase 1, Gurgaon","Qutab Plaza, DLF Phase 1","Qutab Plaza, DLF Phase 1, Gurgaon",28.472038,77.102265,"Bakery, Fast Food",250,Rs.,N,Y,N,N,1,3.0,CDD614,Average,33
324,1286,Rajdhani Thali Restaurant,1,India,New Delhi,"9-A, Atmaram Mansion, Scindia House, Connaught Place, New Delhi",Connaught Place,"Connaught Place, New Delhi",28.629817,77.220536,"Gujarati, Rajasthani",950,Rs.,N,Y,N,N,2,3.6,9ACD32,Good,1134
325,1301,Suruchi,1,India,New Delhi,"15-A/56, Ajmal Khan Road, Opposite Roopak Store, Karol Bagh, New Delhi",Karol Bagh,"Karol Bagh, New Delhi",28.647073,77.188527,"Gujarati, Rajasthani, North Indian, Fast Food",700,Rs.,N,Y,N,N,2,3.8,9ACD32,Good,603
326,1303,Mitraz,1,India,New Delhi,"F-14/7, Model Town 2, New Delhi",Model Town 2,"Model Town 2, New Delhi",28.706418,77.189898,"North Indian, Chinese",850,Rs.,Y,Y,N,N,2,3.4,CDD614,Average,101
327,1305,Sai Ann Kutir,1,India,New Delhi,"5, F Block, DDA Market, Vikaspuri, New Delhi",Vikaspuri,"Vikaspuri, New Delhi",28.640411,77.070744,"Chinese, North Indian",400,Rs.,N,N,N,N,1,2.8,FFBA00,Average,37
328,1308,Republic of Chicken,1,India,New Delhi,"1/51, Opposite Central Market, West Punjabi Bagh,  Delhi, Punjabi Bagh, New Delhi",Punjabi Bagh,"Punjabi Bagh, New Delhi",28.670172,77.133109,"Raw Meats, Fast Food",400,Rs.,N,N,N,N,1,3.1,CDD614,Average,15
329,1313,Subway,1,India,Gurgaon,"J-1, Qutab Plaza, DLF Phase 1, Gurgaon","Qutab Plaza, DLF Phase 1","Qutab Plaza, DLF Phase 1, Gurgaon",28.471558,77.102400,"American, Fast Food, Salad, Healthy Food",500,Rs.,N,Y,N,N,2,3.2,CDD614,Average,92
330,1318,Baskin Robbins,1,India,Ghaziabad,"1st Floor, Shipra Mall, Gulmohar Road, Indirapuram, Ghaziabad","Shipra Mall, Indirapuram","Shipra Mall, Indirapuram, Ghaziabad",28.633928,77.370400,Ice Cream,300,Rs.,N,Y,N,N,1,3.3,CDD614,Average,27
331,1323,Bon Bon Pastry Shop,1,India,Noida,"F-1, Sector 18, Noida",Sector 18,"Sector 18, Noida",28.571583,77.324189,"Bakery, Desserts, Fast Food",150,Rs.,N,N,N,N,1,3.1,CDD614,Average,213
332,1324,Bon Bon Pastry Shop,1,India,New Delhi,"73, Community Center, New Friends Colony, New Delhi","Community Centre, New Friends Colony","Community Centre, New Friends Colony, New Delhi",28.562174,77.268319,"Bakery, Desserts, Fast Food",150,Rs.,N,N,N,N,1,3.5,9ACD32,Good,91
333,1337,Peshawari Delux Restaurant,1,India,Noida,"C Block Market, Sector 41, Noida",Sector 41,"Sector 41, Noida",28.568920,77.361974,"North Indian, Chinese",700,Rs.,N,N,N,N,2,2.4,FF7800,Poor,52
334,1358,Viva Hyderabad,1,India,New Delhi,"Shop 102, 1st Floor, DDA Market 2, Chittaranjan Park, New Delhi",Chittaranjan Park,"Chittaranjan Park, New Delhi",28.536929,77.252929,"Biryani, North Indian",600,Rs.,N,Y,N,N,2,2.3,FF7800,Poor,38
335,1360,Viva Hyderabad,1,India,Gurgaon,"Food Court, 3rd Floor, DLF Mega Mall, DLF Phase 1, Gurgaon","DLF Mega Mall, DLF Phase 1","DLF Mega Mall, DLF Phase 1, Gurgaon",28.475663,77.093115,"Biryani, North Indian",600,Rs.,N,Y,N,N,2,2.5,FFBA00,Average,69
336,1367,Anupam Sweet,1,India,Faridabad,"SCF 74, Sector 15 Market, Sector 15, Faridabad",Sector 15,"Sector 15, Faridabad",28.394901,77.322257,"North Indian, South Indian, Chinese, Fast Food, Mithai",400,Rs.,N,N,N,N,1,3.4,CDD614,Average,70
337,1372,The Coffee Bean & Tea Leaf,1,India,New Delhi,"1st Floor, Select Citywalk Mall, Saket, New Delhi","Select Citywalk Mall, Saket","Select Citywalk Mall, Saket, New Delhi",28.528595,77.219364,Cafe,700,Rs.,N,N,N,N,2,3.7,9ACD32,Good,417
338,1395,Cafe Brown Sugar,1,India,New Delhi,"36, 1st Floor, Main Market, Defence Colony, New Delhi",Defence Colony,"Defence Colony, New Delhi",28.573742,77.230322,"Cafe, Italian, Chinese",1000,Rs.,N,Y,N,N,3,3.7,9ACD32,Good,390
339,1397,Juneja's Eating Plaza,1,India,New Delhi,"74, Mehar Chand Market, Lodhi Colony, New Delhi",Lodhi Colony,"Lodhi Colony, New Delhi",28.584513,77.226729,"North Indian, Mughlai, Chinese, Fast Food",700,Rs.,N,Y,N,N,2,3.4,CDD614,Average,98
340,1401,Brijwasi Restaurant,1,India,New Delhi,"20, Community Center, New Friends Colony, New Delhi","Community Centre, New Friends Colony","Community Centre, New Friends Colony, New Delhi",28.561593,77.268392,"North Indian, Chinese",400,Rs.,N,N,N,N,1,2.8,FFBA00,Average,32
341,1406,Mehfil Dhaba,1,India,New Delhi,"2, Main Market, Malviya Nagar, New Delhi",Malviya Nagar,"Malviya Nagar, New Delhi",28.536911,77.212908,"Fast Food, North Indian",300,Rs.,N,N,N,N,1,3.4,CDD614,Average,214
342,1407,Ganesha Sweets & Restaurant,1,India,New Delhi,"19, Mehar Chand Market, Lodhi Colony, New Delhi",Lodhi Colony,"Lodhi Colony, New Delhi",28.586370,77.226460,"North Indian, Mithai, Street Food",500,Rs.,N,N,N,N,2,2.6,FFBA00,Average,26
343,1413,Le Chef Restro Bar,1,India,Faridabad,"SCF 146/37, HUDA Complex, Delhi Badarpur Border, Near Main Mathura Road, Sector 37, Faridabad",Sector 37,"Sector 37, Faridabad",28.480467,77.310500,"North Indian, Chinese",1000,Rs.,Y,N,N,N,3,2.7,FFBA00,Average,70
344,1414,Anupama Sweets & Family Restaurant,1,India,Faridabad,"SCF 3, Ashoka Enclave Part 1, Near Kanishka Tower, Sector 34, Faridabad",Sector 34,"Sector 34, Faridabad",28.471864,77.314912,"Mithai, North Indian, South Indian, Chinese, Fast Food",400,Rs.,N,Y,N,N,1,2.7,FFBA00,Average,28
345,1430,Ashoka Restaurant,1,India,Faridabad,"Main Market, Sector 16, Faridabad",Sector 16,"Sector 16, Faridabad",28.410469,77.320327,North Indian,400,Rs.,N,N,N,N,1,2.9,FFBA00,Average,43
346,1451,Shamji Snacks,1,India,Gurgaon,"54, Vyapar Kendra, Block C, Phase 1, Sushant Lok, Gurgaon","Vyapar Kendra, Sushant Lok","Vyapar Kendra, Sushant Lok, Gurgaon",28.460230,77.084327,"Mithai, Street Food, South Indian, Chinese, North Indian",400,Rs.,N,N,N,N,1,2.7,FFBA00,Average,83
347,1452,Shamji Sweets,1,India,Gurgaon,"Sohna Chowk, Near Jama Masjid, Sadar Bazar, Gurgaon",Sadar Bazar,"Sadar Bazar, Gurgaon",28.459666,77.026839,Mithai,200,Rs.,N,N,N,N,1,3.2,CDD614,Average,15
348,1453,Romi da Dhaba,1,India,Gurgaon,"GF-177, Sushant Vyapar Kendra, Sushant Lok 1, Sushant Lok, Gurgaon","Vyapar Kendra, Sushant Lok","Vyapar Kendra, Sushant Lok, Gurgaon",28.460048,77.083832,North Indian,550,Rs.,N,Y,N,N,2,3.1,CDD614,Average,122
349,1454,Curry 'n' Phulka,1,India,Gurgaon,"GF-1, Vyapar Kendra, Block C, Sushant Lok, Gurgaon","Vyapar Kendra, Sushant Lok","Vyapar Kendra, Sushant Lok, Gurgaon",28.460756,77.083742,"North Indian, Chinese",400,Rs.,N,Y,N,N,1,2.4,FF7800,Poor,83
350,1455,Lazeez Food,1,India,Gurgaon,"SF-124 & SG - 48, DLF Galleria, DLF Phase 4, Gurgaon","DLF Galleria, DLF Phase 4","DLF Galleria, DLF Phase 4, Gurgaon",28.467068,77.081314,"Mughlai, North Indian",800,Rs.,N,Y,N,N,2,3.5,9ACD32,Good,173
351,1460,Chawla's Chic Inn,1,India,Noida,"2, Alaknanda Market, Sector 28, Noida",Sector 28,"Sector 28, Noida",28.571102,77.333157,"North Indian, Mughlai",600,Rs.,N,Y,N,N,2,2.8,FFBA00,Average,58
352,1461,Chawla's,1,India,New Delhi,"7, A Pocket Market, Sarita Vihar, New Delhi",Sarita Vihar,"Sarita Vihar, New Delhi",28.533613,77.286880,North Indian,500,Rs.,N,N,N,N,2,3.0,CDD614,Average,19
353,1492,KFC,1,India,New Delhi,"Ground Floor, Vasant Square Mall, Vasant Kunj, New Delhi","Vasant Square Mall, Vasant Kunj","Vasant Square Mall, Vasant Kunj, New Delhi",28.525123,77.156125,"American, Fast Food",500,Rs.,N,Y,N,N,2,3.6,9ACD32,Good,277
354,1495,Kitchen Mantra,1,India,Noida,"Sector 93, Noida",Sector 93,"Sector 93, Noida",28.520501,77.384165,"North Indian, Mughlai, Chinese",550,Rs.,N,Y,N,N,2,3.6,9ACD32,Good,210
355,1498,Slice of Italy,1,India,Noida,"7/8/9, VDS Market, Sector 51, Noida",Sector 51,"Sector 51, Noida",28.585893,77.372079,"Italian, Pizza, Bakery",700,Rs.,N,Y,N,N,2,2.3,FF7800,Poor,230
356,1501,Chawla's Chic Inn,1,India,New Delhi,"BT Market, Near DAV School, Shalimar Bagh, New Delhi",Shalimar Bagh,"Shalimar Bagh, New Delhi",28.704282,77.158762,"North Indian, Chinese",700,Rs.,N,Y,N,N,2,3.0,CDD614,Average,71
357,1505,Shree Ram Sweet Centre,1,India,New Delhi,"DDA Market, Ber Sarai, Near IIT Delhi Hostel Gate, JNU, New Delhi",JNU,"JNU, New Delhi",28.549429,77.180772,"Mithai, Street Food",150,Rs.,N,N,N,N,1,2.7,FFBA00,Average,13
358,1507,Angels in my Kitchen,1,India,New Delhi,"Shop 31, Defence Colony Market, Defence Colony, New Delhi",Defence Colony,"Defence Colony, New Delhi",28.573840,77.230412,"Bakery, Desserts, Fast Food",350,Rs.,N,Y,N,N,1,3.8,9ACD32,Good,460
359,1508,Angels in my Kitchen,1,India,New Delhi,"9-AB, Taimur Nagar, New Friends Colony, New Delhi",New Friends Colony,"New Friends Colony, New Delhi",28.570947,77.266841,"Bakery, Desserts, Fast Food",350,Rs.,N,Y,N,N,1,3.2,CDD614,Average,88
360,1509,Angels in my Kitchen,1,India,New Delhi,"15, B-10 Market, Vasant Kunj, New Delhi",Vasant Kunj,"Vasant Kunj, New Delhi",28.531266,77.153819,"Bakery, Desserts, Fast Food",350,Rs.,N,Y,N,N,1,3.7,9ACD32,Good,248
361,1530,Bhoj Restaurant,1,India,New Delhi,"24, Community Center, New Friends Colony, New Delhi","Community Centre, New Friends Colony","Community Centre, New Friends Colony, New Delhi",28.561508,77.268256,"North Indian, Mughlai",600,Rs.,N,N,N,N,2,2.8,FFBA00,Average,54
362,1533,Tibet Kitchen,1,India,New Delhi,"G-15, Old Double Storey, Lajpat Nagar 4, New Delhi",Lajpat Nagar 4,"Lajpat Nagar 4, New Delhi",28.563866,77.245230,"Tibetan, Chinese",500,Rs.,N,N,N,N,2,3.5,9ACD32,Good,515
363,1546,Abhishek Restaurant,1,India,New Delhi,"Shop G-6, Pankaj Corner Market, Near Prince Appartment, IP Extension, New Delhi",IP Extension,"IP Extension, New Delhi",28.630745,77.301654,"North Indian, Chinese",400,Rs.,N,N,N,N,1,2.9,FFBA00,Average,36
364,1547,Chutneez Restaurant Lounge & Bar,1,India,New Delhi,"F-104, 1st Floor, Fun Cinema Building, V3S Mall, Laxmi Nagar, New Delhi","V3S Mall, Laxmi Nagar","V3S Mall, Laxmi Nagar, New Delhi",28.637032,77.286115,"North Indian, Chinese, Mughlai",1200,Rs.,Y,N,N,N,3,2.7,FFBA00,Average,132
365,1599,Street Foods by Punjab Grill,1,India,Gurgaon,"3rd Floor, Food Court, MGF Metropolitan Mall, MG Road, Gurgaon","MGF Metropolitan Mall, MG Road","MGF Metropolitan Mall, MG Road, Gurgaon",28.480330,77.080325,"Street Food, North Indian",700,Rs.,N,Y,N,N,2,2.6,FFBA00,Average,61
366,1613,Chintamani's Namkeen,1,India,New Delhi,"A-10, Jhilmil Industrial Area, Vivek Vihar, New Delhi",Vivek Vihar,"Vivek Vihar, New Delhi",28.675564,77.316533,"Chinese, Fast Food, North Indian, South Indian, Street Food, Mithai",350,Rs.,N,N,N,N,1,2.4,FF7800,Poor,29
367,1614,Big Chill,1,India,New Delhi,"68-A, Khan Market, New Delhi",Khan Market,"Khan Market, New Delhi",28.600624,77.227448,"Italian, Continental, European, Cafe",1500,Rs.,N,N,N,N,3,4.5,3F7E00,Excellent,4986
368,1618,Shudh,1,India,New Delhi,"17-A/32, WEA Gurudwara Road, Near Metro Pillar 98, Karol Bagh, New Delhi",Karol Bagh,"Karol Bagh, New Delhi",28.645475,77.190378,"North Indian, Chinese, South Indian",600,Rs.,N,Y,N,N,2,3.1,CDD614,Average,247
369,1621,The Clay Oven,1,India,New Delhi,"D-1, Hotel Park Residency, Green Park, New Delhi",Green Park,"Green Park, New Delhi",28.557427,77.204901,"North Indian, Mughlai, Chinese",1200,Rs.,Y,Y,N,N,3,3.5,9ACD32,Good,181
370,1625,Gupta Ji Ka Dhaba,1,India,New Delhi,"Near Uphaar Cinema, Green Park Extension Market, Green Park, New Delhi",Green Park,"Green Park, New Delhi",28.558328,77.205889,North Indian,300,Rs.,N,Y,N,N,1,2.6,FFBA00,Average,49
371,1629,Shanghai Restaurant,1,India,New Delhi,"9, Satyaniketan Market, Satyaniketan, New Delhi",Satyaniketan,"Satyaniketan, New Delhi",28.587529,77.169142,"North Indian, Mughlai, Chinese",300,Rs.,N,N,N,N,1,2.5,FFBA00,Average,23
372,1630,Chanakya Bar-Be-Que,1,India,New Delhi,"27, Yashwant Place Market, Chanakyapuri, New Delhi",Chanakyapuri,"Chanakyapuri, New Delhi",28.584361,77.191428,"Chinese, North Indian",800,Rs.,Y,N,N,N,2,3.2,CDD614,Average,17
373,1634,Kwic Bitte Restaurant,1,India,New Delhi,"132, Sarojini Nagar Market, Sarojini Nagar, New Delhi",Sarojini Nagar,"Sarojini Nagar, New Delhi",28.576125,77.195761,"Chinese, South Indian",300,Rs.,N,N,N,N,1,3.3,CDD614,Average,38
374,1637,Bake Day,1,India,New Delhi,"214, Satyaniketan, New Delhi",Satyaniketan,"Satyaniketan, New Delhi",28.587700,77.169052,"Bakery, Fast Food",400,Rs.,N,Y,N,N,1,3.2,CDD614,Average,82
375,1641,Lanterns Kitchen & Bar,1,India,New Delhi,"163-164, Rajendra Bhawan, Near Rachna Picture Hall, Rajendra Place, New Delhi",Rajendra Place,"Rajendra Place, New Delhi",28.643386,77.177790,"Italian, North Indian, Chinese, Mughlai",1200,Rs.,N,N,N,N,3,3.8,9ACD32,Good,1082
376,1643,Chicago Pizza,1,India,New Delhi,"G/21-A, Select Citywalk Mall, Saket, New Delhi","Select Citywalk Mall, Saket","Select Citywalk Mall, Saket, New Delhi",28.528575,77.219429,Pizza,600,Rs.,N,Y,N,N,2,3.4,CDD614,Average,271
377,1654,Qureshi's Kabab Corner,1,India,Gurgaon,"CB 70-71, Shopping Mall, Arjun Marg, DLF Phase 1, Gurgaon","Shopping Mall, DLF Phase 1","Shopping Mall, DLF Phase 1, Gurgaon",28.466140,77.099264,"North Indian, Mughlai",650,Rs.,N,N,N,N,2,4.0,5BA829,Very Good,398
378,1655,Sweets Corner,1,India,Gurgaon,"S 135, Shopping Mall, Market Road, Arjun Marg, DLF Phase 1, Gurgaon","Shopping Mall, DLF Phase 1","Shopping Mall, DLF Phase 1, Gurgaon",28.465885,77.099343,"Mithai, North Indian, Chinese, Street Food",450,Rs.,N,N,N,N,1,2.7,FFBA00,Average,28
379,1664,Kwaliti,1,India,Gurgaon,"SF-71, 1st Floor, DLF Galleria, DLF Phase 4, Gurgaon","DLF Galleria, DLF Phase 4","DLF Galleria, DLF Phase 4, Gurgaon",28.467290,77.081764,"North Indian, Chinese, Fast Food",700,Rs.,N,Y,N,N,2,3.3,CDD614,Average,129
380,1669,New Town Cafe - Park Plaza,1,India,Noida,"Park Plaza Hotel, C Block, Sector 55, Noida","Park Plaza Hotel, Sector 55, Noida","Park Plaza Hotel, Sector 55, Noida, Noida",28.603791,77.349716,"Continental, Chinese, North Indian",2800,Rs.,Y,N,N,N,4,4.1,5BA829,Very Good,228
381,1670,New Town Cafe - Park Plaza,1,India,Gurgaon,"Park Plaza Hotel, B Block, Phase 1, Sushant Lok, Gurgaon","Park Plaza, Sushant Lok","Park Plaza, Sushant Lok, Gurgaon",28.459245,77.075709,"Continental, American, North Indian, Chinese",2200,Rs.,Y,N,N,N,4,3.7,9ACD32,Good,176
382,1675,Qureshi's Kabab Corner,1,India,New Delhi,"E-27, Main Market, South Extension 2, New Delhi",South Extension 2,"South Extension 2, New Delhi",28.567766,77.219001,"North Indian, Mughlai",650,Rs.,N,N,N,N,2,3.6,9ACD32,Good,215
383,1683,Pind Balluchi,1,India,Ghaziabad,"Shop 34-40, Level 3, Shipra Mall, Gulmohar Road, Indirapuram, Ghaziabad","Shipra Mall, Indirapuram","Shipra Mall, Indirapuram, Ghaziabad",28.633970,77.370165,"North Indian, Mughlai",1000,Rs.,Y,Y,N,N,3,1.8,DE1D0F,Poor,322
384,1687,K Raga's,1,India,Gurgaon,"A-55/12, Behind DT Mega Mall, DLF Phase 1, Gurgaon",DLF Phase 1,"DLF Phase 1, Gurgaon",28.473330,77.092375,"North Indian, Mughlai",600,Rs.,N,N,N,N,2,2.9,FFBA00,Average,5
385,1694,Nikhil Food Point,1,India,Gurgaon,"U-69/3, DLF Phase 3, Gurgaon",DLF Phase 3,"DLF Phase 3, Gurgaon",28.489970,77.094764,"Chinese, North Indian",200,Rs.,N,N,N,N,1,2.7,FFBA00,Average,19
386,1698,Anchor Bar & Kitchen,1,India,Noida,"C-26/27, Sector 18, Noida",Sector 18,"Sector 18, Noida",28.570641,77.325049,"North Indian, Chinese",1300,Rs.,Y,N,N,N,3,2.5,FFBA00,Average,106
387,1701,Baby Dragon Bar & Restaurant,1,India,Noida,"G-34, Sector 18, Noida",Sector 18,"Sector 18, Noida",28.569561,77.323714,"North Indian, Continental, Thai, Chinese",1350,Rs.,Y,Y,N,N,3,3.5,9ACD32,Good,326
388,1702,Nazeer Foods,1,India,Noida,"C-9, Behind Shipra Hotel, Sector 18, Noida",Sector 18,"Sector 18, Noida",28.571169,77.324841,"Mughlai, North Indian",600,Rs.,N,Y,N,N,2,3.6,9ACD32,Good,703
389,1712,Republic of Chicken,1,India,New Delhi,"12 & 13, DDA, Market 2, Chittaranjan Park, New Delhi",Chittaranjan Park,"Chittaranjan Park, New Delhi",28.536493,77.253461,"Raw Meats, Fast Food",400,Rs.,N,N,N,N,1,2.7,FFBA00,Average,29
390,1715,Republic of Chicken,1,India,Faridabad,"106, Huda Market, Sector 37, Faridabad",Sector 37,"Sector 37, Faridabad",28.480582,77.310769,"Raw Meats, Fast Food",400,Rs.,N,N,N,N,1,3.1,CDD614,Average,18
391,1722,Punjabi Dhaba 61,1,India,Noida,"8, Food Court, Supertech Shopprix Mall, Sector 61, Noida","Supertech Shopprix Mall, Sector 61","Supertech Shopprix Mall, Sector 61, Noida",28.597130,77.364917,"North Indian, Mughlai, Chinese",800,Rs.,Y,Y,N,N,2,2.6,FFBA00,Average,75
392,1726,Spice of India,1,India,Noida,"108, Food Court, Supertech Shopprix Mall, Sector 61, Noida","Supertech Shopprix Mall, Sector 61","Supertech Shopprix Mall, Sector 61, Noida",28.597143,77.364788,"Mughlai, North Indian",700,Rs.,N,Y,N,N,2,2.6,FFBA00,Average,76
393,1727,New Woks,1,India,Noida,"102 & 103, Food Court, Supertech Shopprix Mall, Sector 61, Noida","Supertech Shopprix Mall, Sector 61","Supertech Shopprix Mall, Sector 61, Noida",28.597062,77.364878,"Chinese, Asian",750,Rs.,Y,Y,N,N,2,2.5,FFBA00,Average,79
394,1733,Eden Kitchen & Bar,1,India,Noida,"Supertech Shopprix Mall, Sector 61, Noida","Supertech Shopprix Mall, Sector 61","Supertech Shopprix Mall, Sector 61, Noida",28.597306,77.364609,"North Indian, Chinese",2000,Rs.,Y,Y,N,N,4,3.1,CDD614,Average,129
395,1735,BSGulati's Punjabi Swad,1,India,Noida,"G-8/3, Savitri Market, Sector 18, Noida",Sector 18,"Sector 18, Noida",28.570444,77.326111,"North Indian, Mughlai",700,Rs.,N,Y,N,N,2,2.5,FFBA00,Average,357
396,1745,Southern Treat,1,India,Noida,"B-1/32, Central Market, Sector 50, Noida",Sector 50,"Sector 50, Noida",28.570351,77.362097,South Indian,500,Rs.,N,Y,N,N,2,2.8,FFBA00,Average,113
397,1774,Rainbows,1,India,New Delhi,"Shop 2, AB-6, Community Center, Safdarjung Enclave, Safdarjung, New Delhi",Safdarjung,"Safdarjung, New Delhi",28.565858,77.199331,"Fast Food, Desserts",400,Rs.,N,Y,N,N,1,3.5,9ACD32,Good,51
398,1775,Bengal Sweet Corner,1,India,New Delhi,"AB 13, Community Center, Safdarjung Enclave, Safdarjung, New Delhi",Safdarjung,"Safdarjung, New Delhi",28.565434,77.199107,"North Indian, South Indian, Chinese, Street Food, Mithai",550,Rs.,N,Y,N,N,2,2.8,FFBA00,Average,90
399,1777,Rajinder Da Dhaba,1,India,New Delhi,"AB-14, Safdarjung Enclave Market, Safdarjung, New Delhi",Safdarjung,"Safdarjung, New Delhi",28.565402,77.199241,"North Indian, Mughlai, Chinese",800,Rs.,N,N,N,N,2,4.3,5BA829,Very Good,3530
400,1800,Veda,1,India,New Delhi,"H-27, Outer Circle, Connaught Place, New Delhi",Connaught Place,"Connaught Place, New Delhi",28.635217,77.218106,"North Indian, Mughlai",1600,Rs.,Y,Y,N,N,3,3.9,9ACD32,Good,1087
401,1804,Berco's,1,India,Faridabad,"Shop R-2, 3rd Floor, Crown Interiorz Mall, Sector 35, Faridabad","Crown Interiorz Mall, Sector 35, Faridabad","Crown Interiorz Mall, Sector 35, Faridabad, Faridabad",28.470026,77.307268,"Chinese, Thai",1100,Rs.,N,Y,N,N,3,3.8,9ACD32,Good,508
402,1819,The All American Diner,1,India,New Delhi,"India Habitat Centre, Lodhi Colony, New Delhi",Lodhi Colony,"Lodhi Colony, New Delhi",28.588779,77.225876,"American, Fast Food",1000,Rs.,N,N,N,N,3,4.1,5BA829,Very Good,3495
403,1820,Chickenette,1,India,Faridabad,"11 & 12, Main Market, Sector 15, Faridabad",Sector 15,"Sector 15, Faridabad",28.395104,77.324411,"Raw Meats, North Indian, Chinese, Fast Food",650,Rs.,N,N,N,N,2,3.7,9ACD32,Good,280
404,1823,Shiv Saras Vyanjan,1,India,Faridabad,"Shop 2398, Sector 7-A, Near, Sector 7, Faridabad",Sector 7,"Sector 7, Faridabad",28.369168,77.328270,Mithai,100,Rs.,N,N,N,N,1,2.9,FFBA00,Average,5
405,1844,Domino's Pizza,1,India,Noida,"A-44/45, DLF 3C Galaxy, Sector 62, Noida",Sector 62,"Sector 62, Noida",28.624431,77.370433,"Pizza, Fast Food",700,Rs.,N,N,N,N,2,2.6,FFBA00,Average,118
406,1851,Swagath,1,India,Gurgaon,"SCO 16-17, Main Market, Sector 29, Gurgaon",Sector 29,"Sector 29, Gurgaon",28.469687,77.062877,"North Indian, Chinese, South Indian, Seafood, Chettinad",1500,Rs.,Y,N,N,N,3,3.6,9ACD32,Good,289
407,1859,Khalsa Restaurant,1,India,New Delhi,"10, Sector 1 Market, R K Puram, New Delhi",R K Puram,"R K Puram, New Delhi",28.564324,77.181856,North Indian,600,Rs.,N,Y,N,N,2,2.9,FFBA00,Average,102
408,1862,Bite-N-Sip,1,India,New Delhi,"6, UG-58 & 59, Ansal Chamber 2, Bhikaji Cama Place, New Delhi",Bhikaji Cama Place,"Bhikaji Cama Place, New Delhi",28.567778,77.188460,"North Indian, Street Food",300,Rs.,N,Y,N,N,1,2.6,FFBA00,Average,38
409,1866,Shiv Dhaba,1,India,New Delhi,"B-39/B, Main Road, Kalkaji, New Delhi",Kalkaji,"Kalkaji, New Delhi",28.542984,77.251992,"North Indian, Chinese",550,Rs.,N,N,N,N,2,3.1,CDD614,Average,92
410,1867,Snack Bar,1,India,New Delhi,"9, UG-65 & 66, Somdutt Chamber 2, Bhikaji Cama Place, New Delhi",Bhikaji Cama Place,"Bhikaji Cama Place, New Delhi",28.568207,77.187206,"North Indian, Mughlai",250,Rs.,N,N,N,N,1,3.0,CDD614,Average,11
411,1876,Khidmat,1,India,New Delhi,"E-9, Main Road, Near Deshbandhu College, Kalkaji, New Delhi",Kalkaji,"Kalkaji, New Delhi",28.541795,77.254480,"North Indian, Mughlai, Chinese",1300,Rs.,Y,Y,N,N,3,3.6,9ACD32,Good,372
412,1888,Sagar Bar-Be Que,1,India,New Delhi,"Plot 1, 80, A Block, Krishna Market, Behind RK Ashram Metro Station, Paharganj, New Delhi",Paharganj,"Paharganj, New Delhi",28.640124,77.210726,"North Indian, Mughlai",500,Rs.,N,Y,N,N,2,2.7,FFBA00,Average,37
413,1889,Tewari Bros Confectioners,1,India,New Delhi,"862, Chandni Chowk, New Delhi",Chandni Chowk,"Chandni Chowk, New Delhi",28.656637,77.226639,"Street Food, North Indian, South Indian, Mithai",200,Rs.,N,N,N,N,1,3.5,9ACD32,Good,51
414,1896,Jain Chawal Wale,1,India,New Delhi,"P-1/190, Connaught Circus, Connaught Place, New Delhi",Connaught Place,"Connaught Place, New Delhi",28.631894,77.216129,North Indian,250,Rs.,N,Y,N,N,1,3.8,9ACD32,Good,301
415,1898,Frontier - The Ashok,1,India,New Delhi,"The Ashok, 50-B, Diplomatic Enclave, Chanakyapuri, New Delhi","The Ashok, Chanakyapuri","The Ashok, Chanakyapuri, New Delhi",28.596694,77.195648,"North Indian, Mughlai",3600,Rs.,Y,N,N,N,4,3.7,9ACD32,Good,101
416,1900,The Oudh - The Ashok,1,India,New Delhi,"The Ashok, 50-B, Diplomatic Enclave, Chanakyapuri, New Delhi","The Ashok, Chanakyapuri","The Ashok, Chanakyapuri, New Delhi",28.596313,77.195872,North Indian,3700,Rs.,Y,N,N,N,4,3.6,9ACD32,Good,100
417,1901,Cafe Turtle,1,India,New Delhi,"Shop 23, 1st & 2nd Floor, Khan Market, New Delhi",Khan Market,"Khan Market, New Delhi",28.600052,77.227088,"Cafe, Italian, Lebanese",1000,Rs.,N,N,N,N,3,3.6,9ACD32,Good,574
418,1902,Cafe Turtle,1,India,New Delhi,"3rd Floor, N-16, Greater Kailash (GK) 1, New Delhi",Greater Kailash (GK) 1,"Greater Kailash (GK) 1, New Delhi",28.556478,77.233061,"Cafe, Italian, Lebanese",1000,Rs.,N,N,N,N,3,3.5,9ACD32,Good,251
419,1903,Cafe Turtle,1,India,New Delhi,"8, Nizamuddin East Market, Nizamuddin, New Delhi",Nizamuddin,"Nizamuddin, New Delhi",28.590291,77.252594,"Cafe, Italian, Lebanese",1000,Rs.,N,N,N,N,3,3.2,CDD614,Average,36
420,1904,Tera Hotel,1,India,New Delhi,"4, Ghaffar Market, Karol Bagh, New Delhi",Karol Bagh,"Karol Bagh, New Delhi",28.649176,77.191172,North Indian,350,Rs.,N,N,N,N,1,3.5,9ACD32,Good,149
421,1905,Raffles,1,India,New Delhi,"6/78, Ajmal Khan Road, Karol Bagh, New Delhi",Karol Bagh,"Karol Bagh, New Delhi",28.647804,77.190437,"Fast Food, North Indian, Chinese",800,Rs.,Y,N,N,N,2,3.1,CDD614,Average,123
422,1906,Sandoz,1,India,New Delhi,"2305, Arya Samaj Road, Karol Bagh, New Delhi",Karol Bagh,"Karol Bagh, New Delhi",28.648441,77.192413,"North Indian, Chinese",550,Rs.,N,N,N,N,2,3.4,CDD614,Average,114
423,1908,Sandoz,1,India,New Delhi,"DB Gupta Road, Karol Bagh, New Delhi",Karol Bagh,"Karol Bagh, New Delhi",28.654044,77.190531,"North Indian, Chinese",550,Rs.,N,N,N,N,2,2.7,FFBA00,Average,56
424,1913,Swagath,1,India,New Delhi,"M-9, M Block Market, Greater Kailash (GK) 2, New Delhi",Greater Kailash (GK) 2,"Greater Kailash (GK) 2, New Delhi",28.534020,77.243348,"North Indian, Chinese, South Indian, Seafood, Chettinad",1500,Rs.,Y,N,N,N,3,3.5,9ACD32,Good,198
425,1914,Bhimsain's Bengali Sweet House,1,India,New Delhi,"27-29, Bengali Market, Barakhamba Road, New Delhi",Barakhamba Road,"Barakhamba Road, New Delhi",28.629783,77.231938,"North Indian, South Indian, Chinese, Street Food, Mithai",400,Rs.,N,Y,N,N,1,3.4,CDD614,Average,560
426,1915,Gopala,1,India,New Delhi,"Shop 38, C Block Market, Near Mata Mandir, New Friends Colony, New Delhi",New Friends Colony,"New Friends Colony, New Delhi",28.569291,77.268209,"Mithai, Street Food",250,Rs.,N,N,N,N,1,3.0,CDD614,Average,7
427,1916,Gopala,1,India,New Delhi,"5, S Block, Chandan Market, Greater Kailash (GK) 2, New Delhi",Greater Kailash (GK) 2,"Greater Kailash (GK) 2, New Delhi",28.530658,77.246045,"Mithai, Street Food",250,Rs.,N,N,N,N,1,3.2,CDD614,Average,12
428,1917,Gopala,1,India,New Delhi,"8, Meherchand Market, Lodhi Colony, New Delhi",Lodhi Colony,"Lodhi Colony, New Delhi",28.586720,77.226370,"Mithai, Street Food",250,Rs.,N,N,N,N,1,3.3,CDD614,Average,25
429,1918,Gopala,1,India,New Delhi,"1, DDA Market, Yusuf Sarai, New Delhi",Yusuf Sarai,"Yusuf Sarai, New Delhi",28.557959,77.207192,"Mithai, Street Food",250,Rs.,N,N,N,N,1,3.3,CDD614,Average,28
430,1919,Gopala,1,India,Noida,"B-1/7, Central Market, Sector 50, Noida",Sector 50,"Sector 50, Noida",28.570872,77.361918,"Mithai, Street Food",250,Rs.,N,N,N,N,1,3.6,9ACD32,Good,69
431,1920,Gopala,1,India,Gurgaon,"D-85, Shopping Mall, Arjun Marg, DLF Phase 1, Gurgaon","Shopping Mall, DLF Phase 1","Shopping Mall, DLF Phase 1, Gurgaon",28.465837,77.099869,"Mithai, Street Food",250,Rs.,N,N,N,N,1,3.4,CDD614,Average,37
432,1922,Culinaire,1,India,New Delhi,"Shop 2, Chandan Market, S Block, Greater Kailash (GK) 2, New Delhi",Greater Kailash (GK) 2,"Greater Kailash (GK) 2, New Delhi",28.530672,77.245687,"Chinese, Thai",1000,Rs.,N,Y,N,N,3,3.8,9ACD32,Good,843
433,1923,Jade Garden,1,India,New Delhi,"5/66, Padam Singh Road, Karol Bagh, New Delhi",Karol Bagh,"Karol Bagh, New Delhi",28.648778,77.189528,Finger Food,1000,Rs.,Y,N,N,N,3,2.4,FF7800,Poor,52
434,1924,New Frontier Hotel,1,India,New Delhi,"2, Ghaffar Market, Karol Bagh, New Delhi",Karol Bagh,"Karol Bagh, New Delhi",28.649189,77.191232,North Indian,350,Rs.,N,N,N,N,1,3.3,CDD614,Average,55
435,1925,Om Saravana Bhavan,1,India,New Delhi,"15-A/17, WEA, Saraswati Marg, Karol Bagh, New Delhi",Karol Bagh,"Karol Bagh, New Delhi",28.646471,77.187741,South Indian,400,Rs.,N,N,N,N,1,2.7,FFBA00,Average,47
436,1926,Punjab Sweet Corner,1,India,New Delhi,"15-A/65, Ajmal Khan Road, Karol Bagh, New Delhi",Karol Bagh,"Karol Bagh, New Delhi",28.646227,77.189404,"Fast Food, North Indian, South Indian, Chinese, Street Food, Mithai",350,Rs.,N,N,N,N,1,3.3,CDD614,Average,236
437,1931,Spicy by Nature,1,India,New Delhi,"15/A 55, WEA, Saraswati Marg, Karol Bagh, New Delhi",Karol Bagh,"Karol Bagh, New Delhi",28.647724,77.188508,"North Indian, Mughlai, Chinese",900,Rs.,Y,N,N,N,2,2.7,FFBA00,Average,84
438,1933,Sri Krishna Udupi,1,India,New Delhi,"12-A/20, WEA, Saraswati Marg, Karol Bagh, New Delhi",Karol Bagh,"Karol Bagh, New Delhi",28.647149,77.188281,South Indian,400,Rs.,N,N,N,N,1,3.0,CDD614,Average,27
